Governate,Area Name,ATM Name,Latitude,Longitude,Description
Al-Behera,Abu Al Matamir,Abu Al Matamir,30.912211,30.170589,Withdrawal
Al-Behera,Abu Al Matamir,Abu Al Matamir,30.91078908,30.17701905,Withdrawal -Deposit – Forex
Al-Behera,Abu Al Matamir,Abu Al Matamir,30.81405902,29.98830245,Withdrawal -Deposit – Forex
Al-Behera,Abu Al Matamir,Abu Al Matamir,30.91584,30.176447,Withdrawal
Al-Behera,Abu Al Matamir,Higher Institute of Administrative Scie. Janaklis,30.8601142,30.15493118,"سحب فقط"
Al-Behera,Abu Al Matamir,Etsalat - Almostaqbal Franchiez -Abo Almatamir,30.9063534,30.1736873,"سحب فقط"
Al-Behera,Abu Al Matamir,Etsalat Albehera,30.91158881,30.17717889,"سحب فقط"
Al-Behera,Abu Al Matamir,Abo Almatamir Health Administration,30.912211,30.170589,"Cash Dispenser only"
Al-Behera,Abu Al Matamir,Abu Almatamir Central Hospital,30.91584,30.176447,"Cash Dispenser only"
Al-Behera,Abu Al Matamir,Tamwely Abu El Matamir,30.91290404,30.17689168,"withdrawal,deposit"
Al-Behera,Abu Al Matamir,Tanmiya Abu El Matamir,30.91144225,30.17490715,"withdrawal,deposit "
Al-Behera,Abu Al Matamir,Tanmiya Nasser,30.92230447,29.95121672,"withdrawal,deposit"
Al-Behera,Abu Homos,Abu Homos,31.099697,30.311892,Withdrawal
Al-Behera,Abu Homos,Abu Homos,31.100602,30.31555,Withdrawal
Al-Behera,Abu Homos,Abu Homos,31.1033,30.310782,Withdrawal
Al-Behera,Abu Homos,Abu Homos,31.0978262,30.31474322,Withdrawal -Deposit – Forex
Al-Behera,Abu Homos,Abu Homos,31.105004,30.314502,Withdrawal
Al-Behera,Abu Homos,Abo Homos Educational Administration,31.1033,30.310782,withdrawal only
Al-Behera,Abu Homos,The local unit Abo Homos,31.100602,30.31555,withdrawal only
Al-Behera,Abu Homos,Abu Homos Central Hospital,31.105004,30.314502,"Cash Dispenser only"
Al-Behera,Abu Homos,Abo Homos Health Administration,31.099697,30.311892,"Cash Dispenser only"
Al-Behera,Al Mahmoudeya,Al Mahmoudeya,31.18275058,30.52755669,Withdrawal -Deposit - Forex
Al-Behera,Al Mahmoudeya,Al Mahmoudeya,31.184945,30.52952,Withdrawal
Al-Behera,Al Mahmoudeya,Al Mahmoudeya,31.175947,30.529477,Withdrawal
Al-Behera,Al Mahmoudeya,Al Mahmoudeya,31.183878,30.519738,Withdrawal
Al-Behera,Al Mahmoudeya,Misr Exchange Almahmoudia,31.1824926,30.52713284,"سحب فقط"
Al-Behera,Al Mahmoudeya,Etsalat - Almostaqbal Franchiez -Almahmoudia,31.1838385,30.52745446,"سحب فقط"
Al-Behera,Al Mahmoudeya,Alatf Electricity Production Station - Mahmoudiya,31.184945,30.52952,withdrawal only
Al-Behera,Al Mahmoudeya,Mahmoudia power plant,31.175947,30.529477,withdrawal only
Al-Behera,Al Mahmoudeya,Mahmoudia General Hospital,31.183878,30.519738,withdrawal only
Al-Behera,Al Mahmoudeya,Tanmiya Mahmoudia,31.18416312,30.52710423,"withdrawal,deposit"
Al-Behera,Al Rahmaneya,Al Rahmaneya,31.10691837,30.64172916,Withdrawal -Deposit - Forex
Al-Behera,Al Rahmaneya,Al Rahmaneya,31.103395,30.638362,Withdrawal
Al-Behera,Al Rahmaneya,Tanmiya Rahmania,31.10958367,30.63910172,"withdrawal,deposit"
Al-Behera,All Areas,Wady El- Natroun,30.39891243,30.36785316,Withdraws -Deposits- Forex
Al-Behera,All Areas,Al Rahmaneya,31.10691837,30.64172916,Withdrawal -Deposit - Forex
Al-Behera,All Areas,Housh Eissa,30.9135036,30.29365764,Withdrawal
Al-Behera,All Areas,Shabrakhiet,31.024659,30.607641,Withdrawal
Al-Behera,All Areas,Al Mahmoudeya,31.18275058,30.52755669,Withdrawal -Deposit - Forex
Al-Behera,All Areas,Koum Hamada,30.763683,30.704811,Withdrawal -Deposit - Forex
Al-Behera,All Areas,Al Rahmaneya,31.103395,30.638362,Withdrawal
Al-Behera,All Areas,Etay Al Barroud,30.886466,30.662967,Withdrawal
Al-Behera,All Areas,Markaz Badr,30.571713,30.711668,Withdrawal
Al-Behera,All Areas,Housh Eissa,30.912765,30.295561,Withdrawal
Al-Behera,All Areas,Damanhour,31.026177,30.451221,Withdrawal
Al-Behera,All Areas,Abu Al Matamir,30.912211,30.170589,Withdrawal
Al-Behera,All Areas,El Dalangat,30.829702,30.535141,Withdrawal
Al-Behera,All Areas,Abu Homos,31.099697,30.311892,Withdrawal
Al-Behera,All Areas,Markaz Badr,30.57747,30.710336,Withdrawal
Al-Behera,All Areas,Damanhour,31.051574,30.463915,Withdrawal
Al-Behera,All Areas,Alnobaria Algadida,30.67059438,30.07277643,Withdrawal
Al-Behera,All Areas,Markaz Badr,30.663293,30.566847,Withdrawal
Al-Behera,All Areas,Abu Homos,31.100602,30.31555,Withdrawal
Al-Behera,All Areas,El Dalangat,30.768322,30.594444,Withdrawal
Al-Behera,All Areas,Damanhour,31.032701,30.464771,Withdrawal
Al-Behera,All Areas,Abu Homos,31.1033,30.310782,Withdrawal
Al-Behera,All Areas,Abu Homos,31.0978262,30.31474322,Withdrawal -Deposit – Forex
Al-Behera,All Areas,Markaz Badr,30.57726731,30.71009132,Withdrawal
Al-Behera,All Areas,Damanhour,31.036388,30.457638,Withdrawal -Deposit – Forex
Al-Behera,All Areas,Damanhour,31.037774,30.433125,Withdrawal -Deposit – Forex
Al-Behera,All Areas,Damanhour,31.052879,30.462731,Withdrawal -Deposit – Forex
Al-Behera,All Areas,Alnobaria Algadida,30.671835,30.073109,Withdrawal
Al-Behera,All Areas,Damanhour,31.03936,30.455253,Withdrawal
Al-Behera,All Areas,Damanhour,31.03975,30.458095,Withdrawal
Al-Behera,All Areas,Rashid,31.40631062,30.4238614,Withdrawal -Deposit – Forex
Al-Behera,All Areas,Shabrakhiet,31.03052168,30.71357679,Withdrawal -Deposit – Forex
Al-Behera,All Areas,Alnobaria Algadida,30.632194,30.2275,Withdrawal
Al-Behera,All Areas,Alnobaria Algadida,30.662002,30.08606,Withdrawal
Al-Behera,All Areas,Damanhour,31.044442,30.470853,Withdrawal
Al-Behera,All Areas,Etay Al Barroud,30.88483388,30.66364617,Withdrawal
Al-Behera,All Areas,Abu Al Matamir,30.91078908,30.17701905,Withdrawal -Deposit – Forex
Al-Behera,All Areas,Damanhour,31.03450281,30.47469798,Withdrawal
Al-Behera,All Areas,Damanhour,31.03449464,30.47471262,Withdrawal
Al-Behera,All Areas,Damanhour,31.04241948,30.46890924,Withdrawal -Deposit – Forex
Al-Behera,All Areas,Abu Al Matamir,30.81405902,29.98830245,Withdrawal -Deposit – Forex
Al-Behera,All Areas,Housh Eissa,30.91770833,30.30043628,Withdrawal -Deposit – Forex
Al-Behera,All Areas,Kafr Al-Dawar,31.13386822,30.13512986,Withdrawal
Al-Behera,All Areas,Koum Hamada,30.7637539,30.69974764,Withdrawal -Deposit – Forex
Al-Behera,All Areas,El Dalangat,30.827806,30.536877,Withdrawal
Al-Behera,All Areas,El Dalangat,30.82785,30.536831,Withdrawal
Al-Behera,All Areas,Etay Al Barroud,30.884864,30.665297,Withdrawal
Al-Behera,All Areas,Housh Eissa,30.915766,30.297315,Withdrawal
Al-Behera,All Areas,Rashid,31.40487,30.423086,Withdrawal
Al-Behera,All Areas,Kafr Al-Dawar,31.135432,30.129149,Withdrawal
Al-Behera,All Areas,Koum Hamada,30.760111,30.694501,Withdrawal
Al-Behera,All Areas,Wady Elnatroon,30.395427,30.37151,Withdrawal
Al-Behera,All Areas,Shabrakhiet,31.027977,30.711581,Withdrawal
Al-Behera,All Areas,Al Mahmoudeya,31.184945,30.52952,Withdrawal
Al-Behera,All Areas,Al Mahmoudeya,31.175947,30.529477,Withdrawal
Al-Behera,All Areas,Koum Hamada,30.699037,30.668604,Withdrawal
Al-Behera,All Areas,Etay Al Barroud,30.886553,30.667319,Withdrawal
Al-Behera,All Areas,Damanhour,31.036522,30.456495,Withdrawal
Al-Behera,All Areas,Damanhour,31.04408,30.475274,Withdrawal
Al-Behera,All Areas,Abu Homos,31.105004,30.314502,Withdrawal
Al-Behera,All Areas,Shabrakhiet,31.027458,30.704211,Withdrawal
Al-Behera,All Areas,Kafr Al-Dawar,31.139199,30.121385,Withdrawal
Al-Behera,All Areas,Kafr Al-Dawar,31.139143,30.12155,Withdrawal
Al-Behera,All Areas,Rashid,31.392898,30.414696,Withdrawal
Al-Behera,All Areas,El Dalangat,30.833752,30.530286,Withdrawal
Al-Behera,All Areas,Kafr Al-Dawar,31.130591,30.122248,Withdrawal
Al-Behera,All Areas,Al Mahmoudeya,31.183878,30.519738,Withdrawal
Al-Behera,All Areas,Abu Al Matamir,30.91584,30.176447,Withdrawal
Al-Behera,All Areas,Rashid,31.288168,30.513992,Withdrawal
Al-Behera,All Areas,Damanhour,31.041921,30.473102,Withdrawal
Al-Behera,All Areas,Etay Al Barroud,30.880486,30.653383,Withdrawal -Deposit – Forex
Al-Behera,All Areas,Edco,31.301812,30.301819,Withdrawal -Deposit – Forex
Al-Behera,All Areas,Damanhour,31.040307,30.468207,Withdrawal
Al-Behera,All Areas,Misr Exchange Almahmoudia,31.1824926,30.52713284,"سحب فقط"
Al-Behera,All Areas,19011 Pharmacy Damanhour,31.04438807,30.4667885,"سحب فقط"
Al-Behera,All Areas,Higher Institute of Administrative Scie. Janaklis,30.8601142,30.15493118,"سحب فقط"
Al-Behera,All Areas,Etsalat - Almostaqbal Franchiez -Abo Almatamir,30.9063534,30.1736873,"سحب فقط"
Al-Behera,All Areas,Etsalat Albehera,30.91158881,30.17717889,"سحب فقط"
Al-Behera,All Areas,Etisalat -Franchiez Almostaqbal - Albostan,30.82974495,30.52961337,"سحب فقط"
Al-Behera,All Areas,Etsalat - Almostaqbal Franchiez -Almahmoudia,31.1838385,30.52745446,"سحب فقط"
Al-Behera,All Areas,Albuhiera Azhar Area 2,31.05193166,30.46430279,"سحب - إيداع - تغيير عملة"
Al-Behera,All Areas,Middle Damanhour Electricity Company,31.04444207,30.47085251,"سحب فقط"
Al-Behera,All Areas,Damanhour train station,31.03428061,30.46823018,"سحب فقط"
Al-Behera,All Areas,Alekhlas Mall,30.7009946,30.2682834,"سحب فقط"
Al-Behera,All Areas,Saft Alinab Local Unit,30.81082688,30.68590817,"سحب فقط"
Al-Behera,All Areas,Carrefour - Damanhour,31.03732147,30.45559064,"سحب - إيداع - تغيير عملة - صرف من الإيداعات GBRU"
Al-Behera,All Areas,Rashid Main Hospital,31.40949916,30.42373416,"سحب فقط"
Al-Behera,All Areas,Rashid Health Unit ,31.39517685,30.42186514,"سحب فقط"
Al-Behera,All Areas,The local unit Alwafaieah Village,30.76832208,30.59444399,"سحب فقط"
Al-Behera,All Areas,Waqed Village Local Unit,30.69531566,30.73931943,"سحب فقط"
Al-Behera,All Areas,Wady Alnatroun Hospital,30.39499563,30.37081886,"سحب - إيداع - تغيير عملة - صرف من الإيداعات GBRU"
Al-Behera,All Areas,Sharnoub Community Development Association,31.013742,30.57017929,"سحب - إيداع - تغيير عملة - صرف من الإيداعات GBRU"
Al-Behera,All Areas,We Ciao Mall Albuhira,31.0463062,30.4652941,"deposit,withdraw and exchange"
Al-Behera,All Areas,Alshamela Hospital Kafr Aldawar,31.130591,30.122248,withdrawal only 
Al-Behera,All Areas,Abo Homos Educational Administration,31.1033,30.310782,withdrawal only
Al-Behera,All Areas,The local unit Abo Homos,31.100602,30.31555,withdrawal only
Al-Behera,All Areas,Alatf Electricity Production Station - Mahmoudiya,31.184945,30.52952,withdrawal only
Al-Behera,All Areas,Mahmoudia power plant,31.175947,30.529477,withdrawal only
Al-Behera,All Areas,Mahmoudia General Hospital,31.183878,30.519738,withdrawal only
Al-Behera,All Areas,Damanhour State Cases Authority ,31.040307,30.468207,withdrawal only
Al-Behera,All Areas,General Office of the Middle Delta Company for the production of electricity in Damanhour,31.03936,30.455253,withdrawal only
Al-Behera,All Areas,Itay Albaroud Court,30.88655,30.667319,withdrawal only
Al-Behera,All Areas,General Office of Buhaira Governorate,31.03975,30.458095,withdrawal only
Al-Behera,All Areas,Kafr El-Dawwar City Branch 2,31.04241948,30.46890924,withdrawal only
Al-Behera,All Areas,Al Hoota Health Unit,30.86942495,30.70074488,"Full Function"
Al-Behera,All Areas,Wadi Alnatrun City Council,30.395427,30.37151,withdrawal
Al-Behera,All Areas,Kafr Aldawar Central Hospital,31.139199,30.121385,"Cash Dispenser only"
Al-Behera,All Areas,Itay Albaroud City Council,31.139199,30.121385,"Cash Dispenser only"
Al-Behera,All Areas,Itay Albaroud  Educational Administration,30.886466,30.662967,"Cash Dispenser only"
Al-Behera,All Areas,Shoubrakhit City Council,31.027977,30.711581,"Cash Dispenser only"
Al-Behera,All Areas,Behira Azhar Area,31.051574,30.463915,"Cash Dispenser only"
Al-Behera,All Areas,Albehira Agricultural Administration,31.026177,30.451221,"Cash Dispenser only"
Al-Behera,All Areas,Albuhaira Youth and Sports Directorate,31.036522,30.456495,"Cash Dispenser only"
Al-Behera,All Areas,The local unit of the Council and the city of Damanhur,31.032701,30.464771,"Cash Dispenser only"
Al-Behera,All Areas,Housh Iesa City Council,30.915766,30.297315,"Cash Dispenser only"
Al-Behera,All Areas,Laqana 0 Team Helmy Afifi Camp,31.024659,30.607641,"Cash Dispenser only"
Al-Behera,All Areas,Laqana 0 Team Helmy Afifi Camp,30.912765,30.295561,"Cash Dispenser only"
Al-Behera,All Areas,Alsorady Hypermarket - Damanhour,31.041921,30.473102,"Cash Dispenser only"
Al-Behera,All Areas,Directorate of Roads and Transportation in Beheira,31.04408,30.475274,"Cash Dispenser only"
Al-Behera,All Areas,Abu Homos Central Hospital,31.105004,30.314502,"Cash Dispenser only"
Al-Behera,All Areas,Delengat City Council,30.827806,30.536877,"Cash Dispenser only"
Al-Behera,All Areas,Aldelengat Health Administration,30.829702,30.535141,"Cash Dispenser only"
Al-Behera,All Areas,Koum Hamada City Council,30.760111,30.694501,"Cash Dispenser only"
Al-Behera,All Areas,Nubaria Power Station Khnaiza - Kom Hamada,30.699037,30.668604,"Cash Dispenser only"
Al-Behera,All Areas,Abo Almatamir Health Administration,30.912211,30.170589,"Cash Dispenser only"
Al-Behera,All Areas,badr Altahrir  Educational Administration,30.571713,30.711668,"Cash Dispenser only"
Al-Behera,All Areas,Badr Altahrir Health Administration,30.57747,30.710336,"Cash Dispenser only"
Al-Behera,All Areas,Alnagah Local unit,30.663293,30.566847,"Cash Dispenser only"
Al-Behera,All Areas,Shabrakhit General Hospital,31.027458,30.704211,"Cash Dispenser only"
Al-Behera,All Areas,Abu Almatamir Central Hospital,30.91584,30.176447,"Cash Dispenser only"
Al-Behera,All Areas,Kafr Aldawar Central Hospital 2,31.139143,30.12155,"Cash Dispenser only"
Al-Behera,All Areas,Delengat City Council 2,30.82785,30.536831,"Cash Dispenser only"
Al-Behera,All Areas,Dilangat Central Hospital,30.833752,30.530286,"Cash Dispenser only"
Al-Behera,All Areas,Rashid City Council,31.40487,30.423086,"Cash Dispenser only"
Al-Behera,All Areas,Dr. Pasha Hospital,31.392898,30.414696,"Cash Dispenser only"
Al-Behera,All Areas,Edfina Azharian Institute,31.288168,30.513992,"Cash Dispenser only"
Al-Behera,All Areas,Kafr Aldawar City Council,31.135432,30.129149,"Cash Dispenser only"
Al-Behera,All Areas,Damanhour University - Faculty of Commerce,31.037774,30.433125,"Full Function"
Al-Behera,All Areas,Ranin Damanhour,31.02842246,30.44735618,"Full Function"
Al-Behera,All Areas,The local unit  of Mahalet Fernoy,30.98201643,30.6542905,"Full Function"
Al-Behera,All Areas,The local unit of the village of Laqana,31.02393382,30.60350721,"Full Function"
Al-Behera,All Areas,The local unit of mahalet Beshr,31.05305248,30.69924925,"Full Function"
Al-Behera,All Areas,Agricultural Administration Itai El-Baroud - Beheira,30.88563219,30.65812817,"Full Function"
Al-Behera,All Areas,Etsalat - Almostaqbal Franchiez -Albehera,30.5761452,30.7090382,"Cash Dispenser only"
Al-Behera,All Areas,New Nubaria City Development Authority,30.671835,30.073109,"Cash Dispenser only"
Al-Behera,All Areas,Alwady Company For Feed - Alnoubaria,30.662002,30.08606,"Cash Dispenser only"
Al-Behera,All Areas,Noubaria Company for the manufacture and refining of sugar,30.632194,30.2275,"Cash Dispenser only"
Al-Behera,All Areas,Express Ahmed Orabi St. Koum hamada,30.763683,30.704811,"Full Function"
Al-Behera,All Areas,Itay Albaroud Electrical Engineering,30.880486,30.653383,"Full Function"
Al-Behera,All Areas,Edco Electrical Engineering -Rashid - Beheira Governorate,31.301812,30.301819,"Cash Dispenser only"
Al-Behera,All Areas,Abo Homos Health Administration,31.099697,30.311892,"Cash Dispenser only"
Al-Behera,All Areas,Damanhour University - Faculty of Pharmacy and Science,31.052879,30.462731,"Full Function"
Al-Behera,All Areas,Damanhour University - Faculty of Arts,31.036388,30.457638,"Full Function"
Al-Behera,All Areas,Tanmiya Rahmania,31.10958367,30.63910172,"withdrawal,deposit"
Al-Behera,All Areas,Tamwely Hosh Eissa,30.91038848,30.29732155,"withdrawal,deposit"
Al-Behera,All Areas,Tamwely Abu El Matamir,30.91290404,30.17689168,"withdrawal,deposit"
Al-Behera,All Areas,Tanmiya Abu El Matamir,30.91144225,30.17490715,"withdrawal,deposit "
Al-Behera,All Areas,Tamwely Al-Dalengat,30.82955574,30.53589971,"withdrawal ,deposit"
Al-Behera,All Areas,Tamwely Etay Al-Baroud,30.88808594,30.67314422,"withdrawal,deposit"
Al-Behera,All Areas,Tanmiya Nasser,30.92230447,29.95121672,"withdrawal,deposit"
Al-Behera,All Areas,Tanmiya Shabrakhit,31.02893672,30.71354872,"withdrawal, deposit"
Al-Behera,All Areas,Tanmiya Mahmoudia,31.18416312,30.52710423,"withdrawal,deposit"
Al-Behera,All Areas,The local unit of the village of Al-Najila,30.73383215,30.77503088,"withdrawal,deposit"
Al-Behera,All Areas,Madrab Al-Buhaira,31.046464,30.46865632,"withdrawal,deposit"
Al-Behera,All Areas,The local unit of the village of Sanhour,31.07099786,30.55110508,"withdrawal,deposit"
Al-Behera,All Areas,The local unit of the village of Aflaqa,31.06715304,30.47713406,"withdrawal, deposit"
Al-Behera,All Areas, Nasser Agency North Tahrir,30.997523,30.136301,"Full Function"
Al-Behera,All Areas,Egypt Exchange Damanhour,31.032126,30.451576,"Withdrawal, Deposit and Exchange"
Al-Behera,All Areas,Boys Damanhour Secondary Institute Al-Azhar,31.03146,30.459748,"Withdrawal, Deposit and Exchange"
Al-Behera,Alnobaria Algadida,Alnobaria Algadida,30.67059438,30.07277643,Withdrawal
Al-Behera,Alnobaria Algadida,Alnobaria Algadida,30.671835,30.073109,Withdrawal
Al-Behera,Alnobaria Algadida,Alnobaria Algadida,30.632194,30.2275,Withdrawal
Al-Behera,Alnobaria Algadida,Alnobaria Algadida,30.662002,30.08606,Withdrawal
Al-Behera,Alnobaria Algadida,New Nubaria City Development Authority,30.671835,30.073109,"Cash Dispenser only"
Al-Behera,Alnobaria Algadida,Alwady Company For Feed - Alnoubaria,30.662002,30.08606,"Cash Dispenser only"
Al-Behera,Alnobaria Algadida,Noubaria Company for the manufacture and refining of sugar,30.632194,30.2275,"Cash Dispenser only"
Al-Behera,Damanhour,Damanhour,31.026177,30.451221,Withdrawal
Al-Behera,Damanhour,Damanhour,31.051574,30.463915,Withdrawal
Al-Behera,Damanhour,Damanhour,31.032701,30.464771,Withdrawal
Al-Behera,Damanhour,Damanhour,31.036388,30.457638,Withdrawal -Deposit – Forex
Al-Behera,Damanhour,Damanhour,31.037774,30.433125,Withdrawal -Deposit – Forex
Al-Behera,Damanhour,Damanhour,31.052879,30.462731,Withdrawal -Deposit – Forex
Al-Behera,Damanhour,Damanhour,31.03936,30.455253,Withdrawal
Al-Behera,Damanhour,Damanhour,31.03975,30.458095,Withdrawal
Al-Behera,Damanhour,Damanhour,31.044442,30.470853,Withdrawal
Al-Behera,Damanhour,Damanhour,31.03450281,30.47469798,Withdrawal
Al-Behera,Damanhour,Damanhour,31.03449464,30.47471262,Withdrawal
Al-Behera,Damanhour,Damanhour,31.04241948,30.46890924,Withdrawal -Deposit – Forex
Al-Behera,Damanhour,Damanhour,31.036522,30.456495,Withdrawal
Al-Behera,Damanhour,Damanhour,31.04408,30.475274,Withdrawal
Al-Behera,Damanhour,Damanhour,31.041921,30.473102,Withdrawal
Al-Behera,Damanhour,Damanhour,31.040307,30.468207,Withdrawal
Al-Behera,Damanhour,19011 Pharmacy Damanhour,31.04438807,30.4667885,"سحب فقط"
Al-Behera,Damanhour,Albuhiera Azhar Area 2,31.05193166,30.46430279,"سحب - إيداع - تغيير عملة"
Al-Behera,Damanhour,Middle Damanhour Electricity Company,31.04444207,30.47085251,"سحب فقط"
Al-Behera,Damanhour,Damanhour train station,31.03428061,30.46823018,"سحب فقط"
Al-Behera,Damanhour,Carrefour - Damanhour,31.03732147,30.45559064,"سحب - إيداع - تغيير عملة - صرف من الإيداعات GBRU"
Al-Behera,Damanhour,Sharnoub Community Development Association,31.013742,30.57017929,"سحب - إيداع - تغيير عملة - صرف من الإيداعات GBRU"
Al-Behera,Damanhour,We Ciao Mall Albuhira,31.0463062,30.4652941,"deposit,withdraw and exchange"
Al-Behera,Damanhour,Damanhour State Cases Authority ,31.040307,30.468207,withdrawal only
Al-Behera,Damanhour,General Office of the Middle Delta Company for the production of electricity in Damanhour,31.03936,30.455253,withdrawal only
Al-Behera,Damanhour,General Office of Buhaira Governorate,31.03975,30.458095,withdrawal only
Al-Behera,Damanhour,Behira Azhar Area,31.051574,30.463915,"Cash Dispenser only"
Al-Behera,Damanhour,Albehira Agricultural Administration,31.026177,30.451221,"Cash Dispenser only"
Al-Behera,Damanhour,Albuhaira Youth and Sports Directorate,31.036522,30.456495,"Cash Dispenser only"
Al-Behera,Damanhour,The local unit of the Council and the city of Damanhur,31.032701,30.464771,"Cash Dispenser only"
Al-Behera,Damanhour,Alsorady Hypermarket - Damanhour,31.041921,30.473102,"Cash Dispenser only"
Al-Behera,Damanhour,Directorate of Roads and Transportation in Beheira,31.04408,30.475274,"Cash Dispenser only"
Al-Behera,Damanhour,Damanhour University - Faculty of Commerce,31.037774,30.433125,"Full Function"
Al-Behera,Damanhour,Ranin Damanhour,31.02842246,30.44735618,"Full Function"
Al-Behera,Damanhour,Damanhour University - Faculty of Pharmacy and Science,31.052879,30.462731,"Full Function"
Al-Behera,Damanhour,Damanhour University - Faculty of Arts,31.036388,30.457638,"Full Function"
Al-Behera,Damanhour,The local unit of the village of Aflaqa,31.06715304,30.47713406,"withdrawal, deposit"
Al-Behera,Damanhour,Egypt Exchange Damanhour,31.032126,30.451576,"Withdrawal, Deposit and Exchange"
Al-Behera,Damanhour,Boys Damanhour Secondary Institute Al-Azhar,31.03146,30.459748,"Withdrawal, Deposit and Exchange"
Al-Behera,Edco,Edco,31.301812,30.301819,Withdrawal -Deposit – Forex
Al-Behera,Edco,Edco Electrical Engineering -Rashid - Beheira Governorate,31.301812,30.301819,"Cash Dispenser only"
Al-Behera,El Dalangat,El Dalangat,30.829702,30.535141,Withdrawal
Al-Behera,El Dalangat,El Dalangat,30.768322,30.594444,Withdrawal
Al-Behera,El Dalangat,El Dalangat,30.827806,30.536877,Withdrawal
Al-Behera,El Dalangat,El Dalangat,30.82785,30.536831,Withdrawal
Al-Behera,El Dalangat,El Dalangat,30.833752,30.530286,Withdrawal
Al-Behera,El Dalangat,Etisalat -Franchiez Almostaqbal - Albostan,30.82974495,30.52961337,"سحب فقط"
Al-Behera,El Dalangat,The local unit Alwafaieah Village,30.76832208,30.59444399,"سحب فقط"
Al-Behera,El Dalangat,Delengat City Council,30.827806,30.536877,"Cash Dispenser only"
Al-Behera,El Dalangat,Aldelengat Health Administration,30.829702,30.535141,"Cash Dispenser only"
Al-Behera,El Dalangat,Delengat City Council 2,30.82785,30.536831,"Cash Dispenser only"
Al-Behera,El Dalangat,Dilangat Central Hospital,30.833752,30.530286,"Cash Dispenser only"
Al-Behera,El Dalangat,Tamwely Al-Dalengat,30.82955574,30.53589971,"withdrawal ,deposit"
Al-Behera,Etay Al Barroud,Etay Al Barroud,30.886466,30.662967,Withdrawal
Al-Behera,Etay Al Barroud,Etay Al Barroud,30.88483388,30.66364617,Withdrawal
Al-Behera,Etay Al Barroud,Etay Al Barroud,30.884864,30.665297,Withdrawal
Al-Behera,Etay Al Barroud,Etay Al Barroud,30.886553,30.667319,Withdrawal
Al-Behera,Etay Al Barroud,Etay Al Barroud,30.880486,30.653383,Withdrawal -Deposit – Forex
Al-Behera,Etay Al Barroud,Itay Albaroud Court,30.88655,30.667319,withdrawal only
Al-Behera,Etay Al Barroud,Al Hoota Health Unit,30.86942495,30.70074488,"Full Function"
Al-Behera,Etay Al Barroud,Itay Albaroud  Educational Administration,30.886466,30.662967,"Cash Dispenser only"
Al-Behera,Etay Al Barroud,Agricultural Administration Itai El-Baroud - Beheira,30.88563219,30.65812817,"Full Function"
Al-Behera,Etay Al Barroud,Itay Albaroud Electrical Engineering,30.880486,30.653383,"Full Function"
Al-Behera,Etay Al Barroud,Tamwely Etay Al-Baroud,30.88808594,30.67314422,"withdrawal,deposit"
Al-Behera,Housh Eissa,Housh Eissa,30.9135036,30.29365764,Withdrawal
Al-Behera,Housh Eissa,Housh Eissa,30.912765,30.295561,Withdrawal
Al-Behera,Housh Eissa,Housh Eissa,30.91770833,30.30043628,Withdrawal -Deposit – Forex
Al-Behera,Housh Eissa,Housh Eissa,30.915766,30.297315,Withdrawal
Al-Behera,Housh Eissa,Alekhlas Mall,30.7009946,30.2682834,"سحب فقط"
Al-Behera,Housh Eissa,Housh Iesa City Council,30.915766,30.297315,"Cash Dispenser only"
Al-Behera,Housh Eissa,Laqana 0 Team Helmy Afifi Camp,30.912765,30.295561,"Cash Dispenser only"
Al-Behera,Housh Eissa,Tamwely Hosh Eissa,30.91038848,30.29732155,"withdrawal,deposit"
Al-Behera,Kafr Al-Dawar,Kafr Al-Dawar,31.13386822,30.13512986,Withdrawal
Al-Behera,Kafr Al-Dawar,Kafr Al-Dawar,31.135432,30.129149,Withdrawal
Al-Behera,Kafr Al-Dawar,Kafr Al-Dawar,31.139199,30.121385,Withdrawal
Al-Behera,Kafr Al-Dawar,Kafr Al-Dawar,31.139143,30.12155,Withdrawal
Al-Behera,Kafr Al-Dawar,Kafr Al-Dawar,31.130591,30.122248,Withdrawal
Al-Behera,Kafr Al-Dawar,Alshamela Hospital Kafr Aldawar,31.130591,30.122248,withdrawal only 
Al-Behera,Kafr Al-Dawar,Kafr El-Dawwar City Branch 2,31.04241948,30.46890924,withdrawal only
Al-Behera,Kafr Al-Dawar,Kafr Aldawar Central Hospital,31.139199,30.121385,"Cash Dispenser only"
Al-Behera,Kafr Al-Dawar,Itay Albaroud City Council,31.139199,30.121385,"Cash Dispenser only"
Al-Behera,Kafr Al-Dawar,Kafr Aldawar Central Hospital 2,31.139143,30.12155,"Cash Dispenser only"
Al-Behera,Kafr Al-Dawar,Kafr Aldawar City Council,31.135432,30.129149,"Cash Dispenser only"
Al-Behera,Kafr Al-Dawar, Nasser Agency North Tahrir,30.997523,30.136301,"Full Function"
Al-Behera,Koum Hamada,Koum Hamada,30.763683,30.704811,Withdrawal -Deposit - Forex
Al-Behera,Koum Hamada,Koum Hamada,30.7637539,30.69974764,Withdrawal -Deposit – Forex
Al-Behera,Koum Hamada,Koum Hamada,30.760111,30.694501,Withdrawal
Al-Behera,Koum Hamada,Koum Hamada,30.699037,30.668604,Withdrawal
Al-Behera,Koum Hamada,Saft Alinab Local Unit,30.81082688,30.68590817,"سحب فقط"
Al-Behera,Koum Hamada,Waqed Village Local Unit,30.69531566,30.73931943,"سحب فقط"
Al-Behera,Koum Hamada,Koum Hamada City Council,30.760111,30.694501,"Cash Dispenser only"
Al-Behera,Koum Hamada,Nubaria Power Station Khnaiza - Kom Hamada,30.699037,30.668604,"Cash Dispenser only"
Al-Behera,Koum Hamada,Express Ahmed Orabi St. Koum hamada,30.763683,30.704811,"Full Function"
Al-Behera,Koum Hamada,The local unit of the village of Al-Najila,30.73383215,30.77503088,"withdrawal,deposit"
Al-Behera,Markaz Badr,Markaz Badr,30.571713,30.711668,Withdrawal
Al-Behera,Markaz Badr,Markaz Badr,30.57747,30.710336,Withdrawal
Al-Behera,Markaz Badr,Markaz Badr,30.663293,30.566847,Withdrawal
Al-Behera,Markaz Badr,Markaz Badr,30.57726731,30.71009132,Withdrawal
Al-Behera,Markaz Badr,badr Altahrir  Educational Administration,30.571713,30.711668,"Cash Dispenser only"
Al-Behera,Markaz Badr,Badr Altahrir Health Administration,30.57747,30.710336,"Cash Dispenser only"
Al-Behera,Markaz Badr,Alnagah Local unit,30.663293,30.566847,"Cash Dispenser only"
Al-Behera,Markaz Badr,Etsalat - Almostaqbal Franchiez -Albehera,30.5761452,30.7090382,"Cash Dispenser only"
Al-Behera,Rashid,Rashid,31.40631062,30.4238614,Withdrawal -Deposit – Forex
Al-Behera,Rashid,Rashid,31.40487,30.423086,Withdrawal
Al-Behera,Rashid,Rashid,31.392898,30.414696,Withdrawal
Al-Behera,Rashid,Rashid,31.288168,30.513992,Withdrawal
Al-Behera,Rashid,Rashid Main Hospital,31.40949916,30.42373416,"سحب فقط"
Al-Behera,Rashid,Rashid Health Unit ,31.39517685,30.42186514,"سحب فقط"
Al-Behera,Rashid,Rashid City Council,31.40487,30.423086,"Cash Dispenser only"
Al-Behera,Rashid,Dr. Pasha Hospital,31.392898,30.414696,"Cash Dispenser only"
Al-Behera,Rashid,Edfina Azharian Institute,31.288168,30.513992,"Cash Dispenser only"
Al-Behera,Shabrakhiet,Shabrakhiet,31.024659,30.607641,Withdrawal
Al-Behera,Shabrakhiet,Shabrakhiet,31.03052168,30.71357679,Withdrawal -Deposit – Forex
Al-Behera,Shabrakhiet,Shabrakhiet,31.027977,30.711581,Withdrawal
Al-Behera,Shabrakhiet,Shabrakhiet,31.027458,30.704211,Withdrawal
Al-Behera,Shabrakhiet,Shoubrakhit City Council,31.027977,30.711581,"Cash Dispenser only"
Al-Behera,Shabrakhiet,Laqana 0 Team Helmy Afifi Camp,31.024659,30.607641,"Cash Dispenser only"
Al-Behera,Shabrakhiet,Shabrakhit General Hospital,31.027458,30.704211,"Cash Dispenser only"
Al-Behera,Shabrakhiet,The local unit  of Mahalet Fernoy,30.98201643,30.6542905,"Full Function"
Al-Behera,Shabrakhiet,The local unit of the village of Laqana,31.02393382,30.60350721,"Full Function"
Al-Behera,Shabrakhiet,The local unit of mahalet Beshr,31.05305248,30.69924925,"Full Function"
Al-Behera,Shabrakhiet,Tanmiya Shabrakhit,31.02893672,30.71354872,"withdrawal, deposit"
Al-Behera,Wady Elnatroon,Wady El- Natroun,30.39891243,30.36785316,Withdraws -Deposits- Forex
Al-Behera,Wady Elnatroon,Wady Elnatroon,30.395427,30.37151,Withdrawal
Al-Behera,Wady Elnatroon,Wady Alnatroun Hospital,30.39499563,30.37081886,"سحب - إيداع - تغيير عملة - صرف من الإيداعات GBRU"
Al-Behera,Wady Elnatroon,Wadi Alnatrun City Council,30.395427,30.37151,withdrawal
Al-Fayoum,Abshaway,Abshaway,29.370735,30.688374,Withdrawal
Al-Fayoum,Abshaway,Abshaway,29.36074053,30.68325785,Withdrawal -Deposit – Forex
Al-Fayoum,Abshaway,Ibshaway Hospital,29.370735,30.688374,Withdrawal Only
Al-Fayoum,Abshaway,Abu Kasah Local Unit,29.392268,30.711708,"Full Function"
Al-Fayoum,Al Fayoum,Al Fayoum,29.30441208,30.85354564,Withdrawal -Deposit - Forex
Al-Fayoum,Al Fayoum,Al Fayoum,29.319696,30.835641,Withdrawal
Al-Fayoum,Al Fayoum,Al Fayoum,29.308199,30.842229,Withdrawal
Al-Fayoum,Al Fayoum,Al Fayoum,29.30772267,30.84613982,Withdrawal
Al-Fayoum,Al Fayoum,Al Fayoum,29.31542035,30.85217852,Withdrawal
Al-Fayoum,Al Fayoum,Al Fayoum,29.321487,30.837896,Withdrawal
Al-Fayoum,Al Fayoum,Al Fayoum,29.322145,30.837087,Withdrawal
Al-Fayoum,Al Fayoum,Al Fayoum,29.308889,30.847499,Withdrawal
Al-Fayoum,Al Fayoum,Al Fayoum,29.304818,30.84385,Withdrawal
Al-Fayoum,Al Fayoum,Al Fayoum,29.319011,30.851452,Withdrawal
Al-Fayoum,Al Fayoum,Orange Tamia Sector,29.47427641,30.9549612,withdraw only
Al-Fayoum,Al Fayoum,Fayoum State Council,29.30973607,30.84764079,"Withdrawal, Deposit, Exchange"
Al-Fayoum,Al Fayoum,Tanmiah Alfaioum,29.3029927,30.85296321,"Withdrawal, Deposit, Exchange"
Al-Fayoum,Al Fayoum,Tanmiah Allahoun,29.20959358,30.9713821,"Withdrawal, Deposit, Exchange"
Al-Fayoum,Al Fayoum,Tanmiah Sila,29.3524194,30.96981294,"Withdrawal, Deposit, Exchange"
Al-Fayoum,Al Fayoum,Fayoum train station,29.308889,30.847499,"Withdrawal, Deposit, Exchange"
Al-Fayoum,Al Fayoum,Fayoum Central 2 - Fayoum sector,29.308199,30.842229,"Withdrawal, Deposit, Exchange"
Al-Fayoum,Al Fayoum,Faculty of Arts Fayoum University ,29.322145,30.837087,"Withdrawal, Deposit, Exchange"
Al-Fayoum,Al Fayoum,Fayoum University,29.319696,30.835641,"Withdrawal, Deposit, Exchange"
Al-Fayoum,Al Fayoum,Fayoum Azhar region,29.319011,30.851452,"Withdrawal, Deposit, Exchange"
Al-Fayoum,Al Fayoum,Fayoum Azhar region,29.319011,30.851452,Withdrawal Only
Al-Fayoum,Al Fayoum,Fayoum Elementary Court,29.304818,30.84385,Withdrawal Only
Al-Fayoum,Al Fayoum,Etisalat Franchise Elkhabeer Fayoum 1,29.309145,30.85801,"Full Function"
Al-Fayoum,Al Fayoum,Al Nabawi General Hospital,29.302496,30.838588,"Withdrawal, Deposit and Exchange"
Al-Fayoum,Al Fayoum,Fayoum Mills,29.310744,30.85621,"Withdrawal, Deposit and Exchange"
Al-Fayoum,All Areas,Al Fayoum,29.30441208,30.85354564,Withdrawal -Deposit - Forex
Al-Fayoum,All Areas,Al Fayoum,29.319696,30.835641,Withdrawal
Al-Fayoum,All Areas,Al Fayoum,29.308199,30.842229,Withdrawal
Al-Fayoum,All Areas,Senouris,29.40857519,30.86507307,Withdrawal -Deposit – Forex
Al-Fayoum,All Areas,Atsa,29.23696578,30.79019445,Withdrawal -Deposit – Forex
Al-Fayoum,All Areas,Al Fayoum,29.30772267,30.84613982,Withdrawal
Al-Fayoum,All Areas,Al Fayoum,29.31542035,30.85217852,Withdrawal
Al-Fayoum,All Areas,Al Fayoum,29.321487,30.837896,Withdrawal
Al-Fayoum,All Areas,Al Fayoum,29.322145,30.837087,Withdrawal
Al-Fayoum,All Areas,Al Fayoum,29.308889,30.847499,Withdrawal
Al-Fayoum,All Areas,Al Fayoum,29.304818,30.84385,Withdrawal
Al-Fayoum,All Areas,Abshaway,29.370735,30.688374,Withdrawal
Al-Fayoum,All Areas,Al Fayoum,29.319011,30.851452,Withdrawal
Al-Fayoum,All Areas,Abshaway,29.36074053,30.68325785,Withdrawal -Deposit – Forex
Al-Fayoum,All Areas,WE Alfaioum Almasalah Sq.,29.31563484,30.85253097,
Al-Fayoum,All Areas,Orange Tamia Sector,29.47427641,30.9549612,withdraw only
Al-Fayoum,All Areas,Sanouras Central Hospital,29.4087034,30.8587204,"withdraw, deposit and exchange		"
Al-Fayoum,All Areas,Fayoum State Council,29.30973607,30.84764079,"Withdrawal, Deposit, Exchange"
Al-Fayoum,All Areas,local unit anchor,29.41719986,30.81736238,"Withdrawal, Deposit, Exchange"
Al-Fayoum,All Areas,Local unit Fidimin,29.38125621,30.77755288,"Withdrawal, Deposit, Exchange"
Al-Fayoum,All Areas,Naqalifa Local Unit,29.39694049,30.82468411,"Withdrawal, Deposit, Exchange"
Al-Fayoum,All Areas,Tanmiah Alfaioum,29.3029927,30.85296321,"Withdrawal, Deposit, Exchange"
Al-Fayoum,All Areas,Tanmiah Abo Gender,29.24124675,30.67229435,"Withdrawal, Deposit, Exchange"
Al-Fayoum,All Areas,Tanmiah Allahoun,29.20959358,30.9713821,"Withdrawal, Deposit, Exchange"
Al-Fayoum,All Areas,Tanmiah Sanhour,29.40740388,30.77005311,"Withdrawal, Deposit, Exchange"
Al-Fayoum,All Areas,Tanmiah Sanouras,29.41540081,30.86429428,"Withdrawal, Deposit, Exchange"
Al-Fayoum,All Areas,Tanmiah Sila,29.3524194,30.96981294,"Withdrawal, Deposit, Exchange"
Al-Fayoum,All Areas,Tanmiah Itsa,29.24143653,30.79518521,"Withdrawal, Deposit, Exchange"
Al-Fayoum,All Areas,Orange Atsa,29.237697,30.795299,"Withdrawal, Deposit, Exchange"
Al-Fayoum,All Areas,Fayoum train station,29.308889,30.847499,"Withdrawal, Deposit, Exchange"
Al-Fayoum,All Areas,Fayoum Central 2 - Fayoum sector,29.308199,30.842229,"Withdrawal, Deposit, Exchange"
Al-Fayoum,All Areas,Faculty of Arts Fayoum University ,29.322145,30.837087,"Withdrawal, Deposit, Exchange"
Al-Fayoum,All Areas,Fayoum University,29.319696,30.835641,"Withdrawal, Deposit, Exchange"
Al-Fayoum,All Areas,Fayoum Azhar region,29.319011,30.851452,"Withdrawal, Deposit, Exchange"
Al-Fayoum,All Areas,Fayoum Azhar region,29.319011,30.851452,Withdrawal Only
Al-Fayoum,All Areas,Fayoum Elementary Court,29.304818,30.84385,Withdrawal Only
Al-Fayoum,All Areas,Ibshaway Hospital,29.370735,30.688374,Withdrawal Only
Al-Fayoum,All Areas,Etisalat Franchise Elkhabeer Fayoum 1,29.309145,30.85801,"Full Function"
Al-Fayoum,All Areas,Abu Kasah Local Unit,29.392268,30.711708,"Full Function"
Al-Fayoum,All Areas,Al Nabawi General Hospital,29.302496,30.838588,"Withdrawal, Deposit and Exchange"
Al-Fayoum,All Areas,Fayoum Mills,29.310744,30.85621,"Withdrawal, Deposit and Exchange"
Al-Fayoum,Atsa,Atsa,29.23696578,30.79019445,Withdrawal -Deposit – Forex
Al-Fayoum,Atsa,Tanmiah Abo Gender,29.24124675,30.67229435,"Withdrawal, Deposit, Exchange"
Al-Fayoum,Atsa,Tanmiah Itsa,29.24143653,30.79518521,"Withdrawal, Deposit, Exchange"
Al-Fayoum,Atsa,Orange Atsa,29.237697,30.795299,"Withdrawal, Deposit, Exchange"
Al-Fayoum,Senouris,Senouris,29.40857519,30.86507307,Withdrawal -Deposit – Forex
Al-Fayoum,Senouris,Sanouras Central Hospital,29.4087034,30.8587204,"withdraw, deposit and exchange		"
Al-Fayoum,Senouris,local unit anchor,29.41719986,30.81736238,"Withdrawal, Deposit, Exchange"
Al-Fayoum,Senouris,Local unit Fidimin,29.38125621,30.77755288,"Withdrawal, Deposit, Exchange"
Al-Fayoum,Senouris,Naqalifa Local Unit,29.39694049,30.82468411,"Withdrawal, Deposit, Exchange"
Al-Fayoum,Senouris,Tanmiah Sanhour,29.40740388,30.77005311,"Withdrawal, Deposit, Exchange"
Al-Fayoum,Senouris,Tanmiah Sanouras,29.41540081,30.86429428,"Withdrawal, Deposit, Exchange"
Al-Gharbia,AL Mahala El Kobra,AL Mahala El Kobra,30.96840535,31.16653175,Withdrawal
Al-Gharbia,AL Mahala El Kobra,AL Mahala El Kobra,30.96841261,31.16653632,Withdrawal
Al-Gharbia,AL Mahala El Kobra,AL Mahala El Kobra,30.9847804,31.16051063,Withdrawal
Al-Gharbia,AL Mahala El Kobra,AL Mahala El Kobra,31.09226754,31.14370783,Withdrawal
Al-Gharbia,AL Mahala El Kobra,AL Mahala El Kobra,30.97440999,31.1700527,Withdrawal
Al-Gharbia,AL Mahala El Kobra,AL Mahala El Kobra,30.95876951,31.16819124,Withdrawal
Al-Gharbia,AL Mahala El Kobra,AL Mahala El Kobra,30.96861421,31.16753985,Withdrawal -Deposit – Forex
Al-Gharbia,AL Mahala El Kobra,AL Mahala El Kobra,30.97382083,31.16779823,Withdrawal
Al-Gharbia,AL Mahala El Kobra,AL Mahala El Kobra,30.95132688,31.15007172,Withdrawal
Al-Gharbia,AL Mahala El Kobra,AL Mahala El Kobra,30.9765346,31.17537475,Withdrawal
Al-Gharbia,AL Mahala El Kobra,Misr Exchange Almahala,30.97074846,31.16754805,withdrawal
Al-Gharbia,AL Mahala El Kobra,We Almahala Local unit,30.9743416,31.1687728,withdrawal
Al-Gharbia,AL Mahala El Kobra,We Alshoun Sq. Almahalah,30.96638119,31.16466574,"withdraw, deposit and exchange		"
Al-Gharbia,AL Mahala El Kobra,Baladiet Almahalah Club,30.98164511,31.17105489,"Withdrawal, Deposit, Exchange"
Al-Gharbia,AL Mahala El Kobra,Derb Hashem Youth Center,30.99968171,31.16443431,"Withdrawal, Deposit, Exchange"
Al-Gharbia,AL Mahala El Kobra,The local unit of the village of Mahalla Hassan,31.02731056,31.17532168,"Withdrawal, Deposit, Exchange"
Al-Gharbia,AL Mahala El Kobra,Zahran Market Almahala,30.980613,31.173253,"Withdrawal, Deposit, Exchange"
Al-Gharbia,AL Mahala El Kobra,The local unit  Demro Village,31.09226754,31.14370783,Withdrawal Only
Al-Gharbia,AL Mahala El Kobra,Almahalla Alkobra City Council,30.97382083,31.16779823,Withdrawal Only
Al-Gharbia,AL Mahala El Kobra,Almahala Alkobra Agricultural Administration,30.9847804,31.16051063,Withdrawal Only
Al-Gharbia,AL Mahala El Kobra,Mahalla Liver Hospital,30.95132688,31.15007172,Withdrawal Only
Al-Gharbia,AL Mahala El Kobra,Almahala Alkobra General Hospital,30.9765346,31.17537475,Withdrawal Only
Al-Gharbia,AL Mahala El Kobra,Almahala Thany District,30.95876951,31.16819124,Withdrawal Only
Al-Gharbia,AL Mahala El Kobra,Almahala Awel District,30.97440999,31.1700527,Withdrawal Only
Al-Gharbia,All Areas,AL Mahala El Kobra,30.96840535,31.16653175,Withdrawal
Al-Gharbia,All Areas,Zefta,30.71413428,31.24904626,Withdrawal
Al-Gharbia,All Areas,Zefta,30.71235434,31.24754813,Withdrawal
Al-Gharbia,All Areas,AL Mahala El Kobra,30.96841261,31.16653632,Withdrawal
Al-Gharbia,All Areas,El Santa,30.73088075,31.11671518,Withdrawal
Al-Gharbia,All Areas,Samanoud,30.96596881,31.24873192,Withdrawal
Al-Gharbia,All Areas,AL Mahala El Kobra,30.9847804,31.16051063,Withdrawal
Al-Gharbia,All Areas,Kafr El Zayat,30.82634766,30.81811673,Withdrawal
Al-Gharbia,All Areas,Tanta,30.79382197,31.00192247,Withdrawal
Al-Gharbia,All Areas,Tanta,30.78983568,30.99066344,Withdrawal
Al-Gharbia,All Areas,Tanta,30.77941184,30.98681621,Withdrawal
Al-Gharbia,All Areas,Zefta,30.80125091,31.21020188,Withdrawal
Al-Gharbia,All Areas,AL Mahala El Kobra,31.09226754,31.14370783,Withdrawal
Al-Gharbia,All Areas,Zefta,30.79191647,31.16947357,Withdrawal
Al-Gharbia,All Areas,Tanta,30.88198283,30.96524633,Withdrawal
Al-Gharbia,All Areas,Zefta,30.69986094,31.25271356,Withdrawal
Al-Gharbia,All Areas,Tanta,30.7961301,30.99893496,Withdrawal
Al-Gharbia,All Areas,Tanta,30.7957389,30.99877817,Withdrawal
Al-Gharbia,All Areas,Tanta,30.78998351,30.99128595,Withdrawal
Al-Gharbia,All Areas,Basyoun,30.93906548,30.81398976,Withdrawal -Deposit – Forex
Al-Gharbia,All Areas,AL Mahala El Kobra,30.97440999,31.1700527,Withdrawal
Al-Gharbia,All Areas,AL Mahala El Kobra,30.95876951,31.16819124,Withdrawal
Al-Gharbia,All Areas,Basyoun,30.94059389,30.82137233,Withdrawal
Al-Gharbia,All Areas,Tanta,30.79605565,30.99741897,Withdrawal
Al-Gharbia,All Areas,Zefta,30.71034997,31.25036718,Withdrawal -Deposit – Forex
Al-Gharbia,All Areas,Samanoud,30.95934299,31.24424078,Withdrawal -Deposit – Forex
Al-Gharbia,All Areas,Tanta,30.81259891,31.0050727,Withdrawal
Al-Gharbia,All Areas,Tanta,30.81243086,31.00521908,Withdrawal
Al-Gharbia,All Areas,Tanta,30.81261632,31.00496598,Withdrawal
Al-Gharbia,All Areas,Tanta,30.79896145,30.99753061,Withdrawal
Al-Gharbia,All Areas,Tanta,30.78020191,31.01075553,Withdrawal
Al-Gharbia,All Areas,Kafr El Zayat,30.82991578,30.8111978,Withdrawal
Al-Gharbia,All Areas,Tanta,30.80322412,30.99626516,Withdrawal
Al-Gharbia,All Areas,AL Mahala El Kobra,30.96861421,31.16753985,Withdrawal -Deposit – Forex
Al-Gharbia,All Areas,Tanta,30.78761068,30.99974312,Withdrawal
Al-Gharbia,All Areas,Tanta,30.79276148,30.99065859,Withdrawal -Deposit – Forex
Al-Gharbia,All Areas,Tanta,30.79266653,30.98911174,Withdrawal
Al-Gharbia,All Areas,Tanta,30.79787371,31.00133273,Withdrawal
Al-Gharbia,All Areas,Kotoor,30.97070599,30.9569079,Withdrawal
Al-Gharbia,All Areas,Tanta,30.79225101,31.01074536,Withdrawal -Deposit – Forex
Al-Gharbia,All Areas,El Santa,30.72743801,31.12104115,Withdrawal -Deposit – Forex
Al-Gharbia,All Areas,Samanoud,30.88240156,31.23455724,Withdrawal
Al-Gharbia,All Areas,Kafr El Zayat,30.82385544,30.81166771,Withdrawal
Al-Gharbia,All Areas,Tanta,30.79397192,31.00686315,Withdrawal
Al-Gharbia,All Areas,Tanta,30.8011309,30.99219252,Withdrawal
Al-Gharbia,All Areas,AL Mahala El Kobra,30.97382083,31.16779823,Withdrawal
Al-Gharbia,All Areas,Zefta,30.71317231,31.24322923,Withdrawal
Al-Gharbia,All Areas,Zefta,30.71318044,31.24311345,Withdrawal
Al-Gharbia,All Areas,Kotoor,30.9669702,30.95712002,Withdrawal
Al-Gharbia,All Areas,Samanoud,30.96349337,31.24265613,Withdrawal
Al-Gharbia,All Areas,Kafr El Zayat,30.82564688,30.81747651,Withdrawal
Al-Gharbia,All Areas,Tanta,30.783461,30.9895746,Withdrawal
Al-Gharbia,All Areas,Samanoud,30.84995542,31.23733932,Withdrawal
Al-Gharbia,All Areas,AL Mahala El Kobra,30.95132688,31.15007172,Withdrawal
Al-Gharbia,All Areas,AL Mahala El Kobra,30.9765346,31.17537475,Withdrawal
Al-Gharbia,All Areas,Kotoor,30.97712953,30.95726383,Withdrawal
Al-Gharbia,All Areas,Kafr El Zayat,30.82023673,30.81920027,Withdrawal
Al-Gharbia,All Areas,Basyoun,30.94038549,30.82041547,Withdrawal
Al-Gharbia,All Areas,Tanta,30.78571856,30.97899967,Withdrawal
Al-Gharbia,All Areas,Tanta,30.78109064,30.99600392,Withdrawal
Al-Gharbia,All Areas,Kotoor,30.94499339,30.96142241,Withdrawal
Al-Gharbia,All Areas,Tanta,30.7855282,30.97898777,Withdrawal
Al-Gharbia,All Areas,Tanta,30.80423864,31.02322083,Withdrawal -Deposit – Forex
Al-Gharbia,All Areas,Tanta,30.78503698,30.99363048,سحب فقط
Al-Gharbia,All Areas,Samanoud,30.96170513,31.24650627,Withdrawal
Al-Gharbia,All Areas, South Of Delta Electricity distribution Co.2,30.812431,31.005219,withdrawal
Al-Gharbia,All Areas, South Of Delta Electricity distribution Co.3,30.812616,31.004966,
Al-Gharbia,All Areas,Misr Exchange Almahala,30.97074846,31.16754805,withdrawal
Al-Gharbia,All Areas,Misr Exchange Tanta,30.79322755,30.99561677,
Al-Gharbia,All Areas,We Almahala Local unit,30.9743416,31.1687728,withdrawal
Al-Gharbia,All Areas,We Alshoun Sq. Almahalah,30.96638119,31.16466574,"withdraw, deposit and exchange		"
Al-Gharbia,All Areas,Beltag Local Unit,31.00002271,30.98920359,"withdraw, deposit and exchange		"
Al-Gharbia,All Areas,Babousir local unit,30.88308183,31.23417071,Withdrawal Only
Al-Gharbia,All Areas,Emaar Delta Mall,30.7968462,31.0020283,Withdrawal Only
Al-Gharbia,All Areas,Outlet Mall,30.79802088,31.00799245,"Withdrawal, Deposit, Exchange"
Al-Gharbia,All Areas,State Council Western Branch,30.79656463,30.99715466,"Withdrawal, Deposit, Exchange"
Al-Gharbia,All Areas,Baladiet Almahalah Club,30.98164511,31.17105489,"Withdrawal, Deposit, Exchange"
Al-Gharbia,All Areas,Derb Hashem Youth Center,30.99968171,31.16443431,"Withdrawal, Deposit, Exchange"
Al-Gharbia,All Areas,Hyper Casa,30.79273748,30.97869675,"Withdrawal, Deposit, Exchange"
Al-Gharbia,All Areas,Health Unit Fisha Selim,30.76841357,30.96798253,"Withdrawal, Deposit, Exchange"
Al-Gharbia,All Areas,Tanta train station,30.78243677,30.99414487,"Withdrawal, Deposit, Exchange"
Al-Gharbia,All Areas,The local unit of the village of Mahalla Hassan,31.02731056,31.17532168,"Withdrawal, Deposit, Exchange"
Al-Gharbia,All Areas,The local unit of the village of Kafr Kila Al-Bab,30.69038305,31.14258493,"Withdrawal, Deposit, Exchange"
Al-Gharbia,All Areas,The local unit of the village of Shabramles,30.84702629,31.1974472,"Withdrawal, Deposit, Exchange"
Al-Gharbia,All Areas,Zahran Market Almahala,30.980613,31.173253,"Withdrawal, Deposit, Exchange"
Al-Gharbia,All Areas,Tamwely Basioun,30.939667,30.805887,"Withdrawal, Deposit, Exchange"
Al-Gharbia,All Areas,Tamwely Samanoud,30.961457,31.244514,"Withdrawal, Deposit, Exchange"
Al-Gharbia,All Areas,The local unit  Demro Village,31.09226754,31.14370783,Withdrawal Only
Al-Gharbia,All Areas,Tanta Judges Club,30.78503698,30.99363048,"Withdrawal, Deposit, Exchange"
Al-Gharbia,All Areas,The local unit Mahalet Menouf -Tanta Sector,30.88198283,30.96524633,Withdrawal Only
Al-Gharbia,All Areas,Tanta Electricity Company,30.79896145,30.99753061,Withdrawal Only
Al-Gharbia,All Areas,Zahra Girls Secondary Institute in Damat - Qutour Center,30.94499339,30.96142241,Withdrawal Only
Al-Gharbia,All Areas,Almahatta Mosque (Basyoun),30.94038549,30.82041547,Withdrawal Only
Al-Gharbia,All Areas,Basion Educational Administration,30.94059389,30.82137233,Withdrawal Only
Al-Gharbia,All Areas,Zefta Social Insurance Qouran Association,30.71235434,31.24754813,Withdrawal Only
Al-Gharbia,All Areas,"The local unit, Sonbat",30.80125091,31.21020188,Withdrawal Only
Al-Gharbia,All Areas,The local unit shershaba Village -Zefta,30.79191647,31.16947357,"Withdrawal, Deposit, Exchange"
Al-Gharbia,All Areas,Zefta City Council 2,30.71318044,31.24311345,Withdrawal Only
Al-Gharbia,All Areas,Secondary school for girls in Manshah Al-Santa,30.73088075,31.11671518,Withdrawal Only
Al-Gharbia,All Areas,Zefta City Council,30.71317231,31.24322923,Withdrawal Only
Al-Gharbia,All Areas,Almahalla Alkobra City Council,30.97382083,31.16779823,Withdrawal Only
Al-Gharbia,All Areas,Benna Abosir Village - Samanoud gharbia,30.88240156,31.23455724,Withdrawal Only
Al-Gharbia,All Areas,Tanta Alahmadi Alazhar Religious Institute,30.78109064,30.99600392,Withdrawal Only
Al-Gharbia,All Areas,Meet Badr halawa youth center,30.84995542,31.23733932,Withdrawal Only
Al-Gharbia,All Areas,Almahala Alkobra Agricultural Administration,30.9847804,31.16051063,Withdrawal Only
Al-Gharbia,All Areas,Teachers Syndicate Club in Samannoud,30.96170513,31.24650627,Withdrawal Only
Al-Gharbia,All Areas,Samanoud Health Administration,30.96596881,31.24873192,Withdrawal Only
Al-Gharbia,All Areas,Alshahid Mohamed Mahmoud Khairy Albadrawy  School Samanoud,30.96349337,31.24265613,Withdrawal Only
Al-Gharbia,All Areas,Mahalla Liver Hospital,30.95132688,31.15007172,Withdrawal Only
Al-Gharbia,All Areas,Almahala Alkobra General Hospital,30.9765346,31.17537475,Withdrawal Only
Al-Gharbia,All Areas,Almahala Thany District,30.95876951,31.16819124,Withdrawal Only
Al-Gharbia,All Areas,Almahala Awel District,30.97440999,31.1700527,Withdrawal Only
Al-Gharbia,All Areas,kafr Alzaiat Health Administration,30.82634766,30.81811673,Withdrawal Only
Al-Gharbia,All Areas,Kafr Alzaiat Company for Pesticides and Chemicals,30.82991578,30.8111978,Withdrawal Only
Al-Gharbia,All Areas,Kafr Alzayat General Hospital,30.82023673,30.81920027,Withdrawal Only
Al-Gharbia,All Areas,Qutour Central Hospital,30.97712953,30.95726383,Withdrawal Only
Al-Gharbia,All Areas,"Azhari Institute for Girls, Tanta",30.78983568,30.99066344,Withdrawal Only
Al-Gharbia,All Areas,Orouba Mall - Carrefour Tanta,30.80423864,31.02322083,Withdrawal Only
Al-Gharbia,All Areas,Faculty of Specific Education Tanta,30.79397192,31.00686315,Withdrawal Only
Al-Gharbia,All Areas,Tanta University Administration 2,30.7957389,30.99877817,Withdrawal Only
Al-Gharbia,All Areas,West Tanta Educational Administration,30.78998351,30.99128595,Withdrawal Only
Al-Gharbia,All Areas,Tanta Azhar Area,30.77941184,30.98681621,Withdrawal Only
Al-Gharbia,All Areas,Tanta General Medical Center,30.79382197,31.00192247,Withdrawal Only
Al-Gharbia,All Areas,Directorate of Education Tanta,30.783461,30.9895746,Withdrawal Only
Al-Gharbia,All Areas,Tanta sales taxes,30.80322412,30.99626516,Withdrawal Only
Al-Gharbia,All Areas,Ahmed Maher Tanta,30.786634,30.998089,Withdrawal Only
Al-Gharbia,All Areas,Tanta University Administration,30.7961301,30.99893496,Withdrawal Only
Al-Gharbia,All Areas,Faculty of Science Tanta University,30.8011309,30.99219252,Withdrawal Only
Al-Gharbia,All Areas,The tasks of the armed forces in Tanta 2,30.7855282,30.97898777,Withdrawal Only
Al-Gharbia,All Areas,Armed Forces Missions Factory 1,30.78571856,30.97899967,Withdrawal Only
Al-Gharbia,All Areas,Middle and West Delta Mills Company,30.78020191,31.01075553,Withdrawal Only
Al-Gharbia,Basyoun,Basyoun,30.93906548,30.81398976,Withdrawal -Deposit – Forex
Al-Gharbia,Basyoun,Basyoun,30.94059389,30.82137233,Withdrawal
Al-Gharbia,Basyoun,Basyoun,30.94038549,30.82041547,Withdrawal
Al-Gharbia,Basyoun,Tamwely Basioun,30.939667,30.805887,"Withdrawal, Deposit, Exchange"
Al-Gharbia,Basyoun,Almahatta Mosque (Basyoun),30.94038549,30.82041547,Withdrawal Only
Al-Gharbia,Basyoun,Basion Educational Administration,30.94059389,30.82137233,Withdrawal Only
Al-Gharbia,El Santa,El Santa,30.73088075,31.11671518,Withdrawal
Al-Gharbia,El Santa,El Santa,30.72743801,31.12104115,Withdrawal -Deposit – Forex
Al-Gharbia,El Santa,Secondary school for girls in Manshah Al-Santa,30.73088075,31.11671518,Withdrawal Only
Al-Gharbia,Kafr El Zayat,Kafr El Zayat,30.82634766,30.81811673,Withdrawal
Al-Gharbia,Kafr El Zayat,Kafr El Zayat,30.82991578,30.8111978,Withdrawal
Al-Gharbia,Kafr El Zayat,Kafr El Zayat,30.82385544,30.81166771,Withdrawal
Al-Gharbia,Kafr El Zayat,Kafr El Zayat,30.82564688,30.81747651,Withdrawal
Al-Gharbia,Kafr El Zayat,Kafr El Zayat,30.82023673,30.81920027,Withdrawal
Al-Gharbia,Kafr El Zayat,kafr Alzaiat Health Administration,30.82634766,30.81811673,Withdrawal Only
Al-Gharbia,Kafr El Zayat,Kafr Alzaiat Company for Pesticides and Chemicals,30.82991578,30.8111978,Withdrawal Only
Al-Gharbia,Kafr El Zayat,Kafr Alzayat General Hospital,30.82023673,30.81920027,Withdrawal Only
Al-Gharbia,Kotoor,Kotoor,30.97070599,30.9569079,Withdrawal
Al-Gharbia,Kotoor,Kotoor,30.9669702,30.95712002,Withdrawal
Al-Gharbia,Kotoor,Kotoor,30.97712953,30.95726383,Withdrawal
Al-Gharbia,Kotoor,Kotoor,30.94499339,30.96142241,Withdrawal
Al-Gharbia,Kotoor,Beltag Local Unit,31.00002271,30.98920359,"withdraw, deposit and exchange		"
Al-Gharbia,Kotoor,Zahra Girls Secondary Institute in Damat - Qutour Center,30.94499339,30.96142241,Withdrawal Only
Al-Gharbia,Kotoor,Qutour Central Hospital,30.97712953,30.95726383,Withdrawal Only
Al-Gharbia,Samanoud,Samanoud,30.96596881,31.24873192,Withdrawal
Al-Gharbia,Samanoud,Samanoud,30.95934299,31.24424078,Withdrawal -Deposit – Forex
Al-Gharbia,Samanoud,Samanoud,30.88240156,31.23455724,Withdrawal
Al-Gharbia,Samanoud,Samanoud,30.96349337,31.24265613,Withdrawal
Al-Gharbia,Samanoud,Samanoud,30.84995542,31.23733932,Withdrawal
Al-Gharbia,Samanoud,Samanoud,30.96170513,31.24650627,Withdrawal
Al-Gharbia,Samanoud,Babousir local unit,30.88308183,31.23417071,Withdrawal Only
Al-Gharbia,Samanoud,Tamwely Samanoud,30.961457,31.244514,"Withdrawal, Deposit, Exchange"
Al-Gharbia,Samanoud,Benna Abosir Village - Samanoud gharbia,30.88240156,31.23455724,Withdrawal Only
Al-Gharbia,Samanoud,Meet Badr halawa youth center,30.84995542,31.23733932,Withdrawal Only
Al-Gharbia,Samanoud,Teachers Syndicate Club in Samannoud,30.96170513,31.24650627,Withdrawal Only
Al-Gharbia,Samanoud,Samanoud Health Administration,30.96596881,31.24873192,Withdrawal Only
Al-Gharbia,Samanoud,Alshahid Mohamed Mahmoud Khairy Albadrawy  School Samanoud,30.96349337,31.24265613,Withdrawal Only
Al-Gharbia,Tanta,Tanta,30.79382197,31.00192247,Withdrawal
Al-Gharbia,Tanta,Tanta,30.78983568,30.99066344,Withdrawal
Al-Gharbia,Tanta,Tanta,30.77941184,30.98681621,Withdrawal
Al-Gharbia,Tanta,Tanta,30.88198283,30.96524633,Withdrawal
Al-Gharbia,Tanta,Tanta,30.7961301,30.99893496,Withdrawal
Al-Gharbia,Tanta,Tanta,30.7957389,30.99877817,Withdrawal
Al-Gharbia,Tanta,Tanta,30.78998351,30.99128595,Withdrawal
Al-Gharbia,Tanta,Tanta,30.79605565,30.99741897,Withdrawal
Al-Gharbia,Tanta,Tanta,30.81259891,31.0050727,Withdrawal
Al-Gharbia,Tanta,Tanta,30.81243086,31.00521908,Withdrawal
Al-Gharbia,Tanta,Tanta,30.81261632,31.00496598,Withdrawal
Al-Gharbia,Tanta,Tanta,30.79896145,30.99753061,Withdrawal
Al-Gharbia,Tanta,Tanta,30.78020191,31.01075553,Withdrawal
Al-Gharbia,Tanta,Tanta,30.80322412,30.99626516,Withdrawal
Al-Gharbia,Tanta,Tanta,30.78761068,30.99974312,Withdrawal
Al-Gharbia,Tanta,Tanta,30.79276148,30.99065859,Withdrawal -Deposit – Forex
Al-Gharbia,Tanta,Tanta,30.79266653,30.98911174,Withdrawal
Al-Gharbia,Tanta,Tanta,30.79787371,31.00133273,Withdrawal
Al-Gharbia,Tanta,Tanta,30.79225101,31.01074536,Withdrawal -Deposit – Forex
Al-Gharbia,Tanta,Tanta,30.79397192,31.00686315,Withdrawal
Al-Gharbia,Tanta,Tanta,30.8011309,30.99219252,Withdrawal
Al-Gharbia,Tanta,Tanta,30.783461,30.9895746,Withdrawal
Al-Gharbia,Tanta,Tanta,30.78571856,30.97899967,Withdrawal
Al-Gharbia,Tanta,Tanta,30.78109064,30.99600392,Withdrawal
Al-Gharbia,Tanta,Tanta,30.7855282,30.97898777,Withdrawal
Al-Gharbia,Tanta,Tanta,30.80423864,31.02322083,Withdrawal -Deposit – Forex
Al-Gharbia,Tanta,Tanta,30.78503698,30.99363048,سحب فقط
Al-Gharbia,Tanta, South Of Delta Electricity distribution Co.2,30.812431,31.005219,withdrawal
Al-Gharbia,Tanta, South Of Delta Electricity distribution Co.3,30.812616,31.004966,
Al-Gharbia,Tanta,Misr Exchange Tanta,30.79322755,30.99561677,
Al-Gharbia,Tanta,Emaar Delta Mall,30.7968462,31.0020283,Withdrawal Only
Al-Gharbia,Tanta,Outlet Mall,30.79802088,31.00799245,"Withdrawal, Deposit, Exchange"
Al-Gharbia,Tanta,State Council Western Branch,30.79656463,30.99715466,"Withdrawal, Deposit, Exchange"
Al-Gharbia,Tanta,Hyper Casa,30.79273748,30.97869675,"Withdrawal, Deposit, Exchange"
Al-Gharbia,Tanta,Health Unit Fisha Selim,30.76841357,30.96798253,"Withdrawal, Deposit, Exchange"
Al-Gharbia,Tanta,Tanta train station,30.78243677,30.99414487,"Withdrawal, Deposit, Exchange"
Al-Gharbia,Tanta,The local unit of the village of Kafr Kila Al-Bab,30.69038305,31.14258493,"Withdrawal, Deposit, Exchange"
Al-Gharbia,Tanta,Tanta Judges Club,30.78503698,30.99363048,"Withdrawal, Deposit, Exchange"
Al-Gharbia,Tanta,The local unit Mahalet Menouf -Tanta Sector,30.88198283,30.96524633,Withdrawal Only
Al-Gharbia,Tanta,Tanta Electricity Company,30.79896145,30.99753061,Withdrawal Only
Al-Gharbia,Tanta,Tanta Alahmadi Alazhar Religious Institute,30.78109064,30.99600392,Withdrawal Only
Al-Gharbia,Tanta,"Azhari Institute for Girls, Tanta",30.78983568,30.99066344,Withdrawal Only
Al-Gharbia,Tanta,Orouba Mall - Carrefour Tanta,30.80423864,31.02322083,Withdrawal Only
Al-Gharbia,Tanta,Faculty of Specific Education Tanta,30.79397192,31.00686315,Withdrawal Only
Al-Gharbia,Tanta,Tanta University Administration 2,30.7957389,30.99877817,Withdrawal Only
Al-Gharbia,Tanta,West Tanta Educational Administration,30.78998351,30.99128595,Withdrawal Only
Al-Gharbia,Tanta,Tanta Azhar Area,30.77941184,30.98681621,Withdrawal Only
Al-Gharbia,Tanta,Tanta General Medical Center,30.79382197,31.00192247,Withdrawal Only
Al-Gharbia,Tanta,Directorate of Education Tanta,30.783461,30.9895746,Withdrawal Only
Al-Gharbia,Tanta,Tanta sales taxes,30.80322412,30.99626516,Withdrawal Only
Al-Gharbia,Tanta,Ahmed Maher Tanta,30.786634,30.998089,Withdrawal Only
Al-Gharbia,Tanta,Tanta University Administration,30.7961301,30.99893496,Withdrawal Only
Al-Gharbia,Tanta,Faculty of Science Tanta University,30.8011309,30.99219252,Withdrawal Only
Al-Gharbia,Tanta,The tasks of the armed forces in Tanta 2,30.7855282,30.97898777,Withdrawal Only
Al-Gharbia,Tanta,Armed Forces Missions Factory 1,30.78571856,30.97899967,Withdrawal Only
Al-Gharbia,Tanta,Middle and West Delta Mills Company,30.78020191,31.01075553,Withdrawal Only
Al-Gharbia,Zefta,Zefta,30.71413428,31.24904626,Withdrawal
Al-Gharbia,Zefta,Zefta,30.71235434,31.24754813,Withdrawal
Al-Gharbia,Zefta,Zefta,30.80125091,31.21020188,Withdrawal
Al-Gharbia,Zefta,Zefta,30.79191647,31.16947357,Withdrawal
Al-Gharbia,Zefta,Zefta,30.69986094,31.25271356,Withdrawal
Al-Gharbia,Zefta,Zefta,30.71034997,31.25036718,Withdrawal -Deposit – Forex
Al-Gharbia,Zefta,Zefta,30.71317231,31.24322923,Withdrawal
Al-Gharbia,Zefta,Zefta,30.71318044,31.24311345,Withdrawal
Al-Gharbia,Zefta,The local unit of the village of Shabramles,30.84702629,31.1974472,"Withdrawal, Deposit, Exchange"
Al-Gharbia,Zefta,Zefta Social Insurance Qouran Association,30.71235434,31.24754813,Withdrawal Only
Al-Gharbia,Zefta,"The local unit, Sonbat",30.80125091,31.21020188,Withdrawal Only
Al-Gharbia,Zefta,The local unit shershaba Village -Zefta,30.79191647,31.16947357,"Withdrawal, Deposit, Exchange"
Al-Gharbia,Zefta,Zefta City Council 2,30.71318044,31.24311345,Withdrawal Only
Al-Gharbia,Zefta,Zefta City Council,30.71317231,31.24322923,Withdrawal Only
Al-Menia,Abu Kerkas,Abu Kerkas,27.93478075,30.8193743,Withdrawal
Al-Menia,Abu Kerkas,Abu Kerkas,27.93200703,30.82132265,Withdrawal -Deposit – Forex
Al-Menia,Abu Kerkas,Abu Kerkas,27.92566223,30.81930375,Withdrawal
Al-Menia,Abu Kerkas,Abu Kerkas,27.93947437,30.82362322,Withdrawal
Al-Menia,Abu Kerkas,Abu Kerkas,27.92801188,30.81946122,Withdrawal
Al-Menia,Abu Kerkas,Abu Qurqas Train Station,27.93002254,30.82199295,full function
Al-Menia,Abu Kerkas,Tanmiah Balansoura,27.92024435,30.69838252,full function
Al-Menia,Abu Kerkas,Tanmiah Alfekria,27.93174553,30.83314367,full function
Al-Menia,Abu Kerkas,Abo Qurqas City Council,27.93947437,30.82362322,full function 
Al-Menia,Abu Kerkas,Abo Qorqas Educational Administration,27.93478075,30.8193743,full function
Al-Menia,Abu Kerkas,Abu Qurqas Police Station,27.92801188,30.81946122,full function 
Al-Menia,Abu Kerkas,Abu Qurqas sugar,27.92566223,30.81930375,full function
Al-Menia,All Areas,ElMenia,28.11789004,30.74257455,Withdrawal
Al-Menia,All Areas,ElMenia,28.08965662,30.76313344,Withdrawal
Al-Menia,All Areas,Matai,28.42174871,30.79030213,Withdrawal
Al-Menia,All Areas,ElMenia,28.09186301,30.76335211,Withdrawal
Al-Menia,All Areas,Malawi,27.73721029,30.84510069,Withdrawal
Al-Menia,All Areas,Abu Kerkas,27.93478075,30.8193743,Withdrawal
Al-Menia,All Areas,ElMenia,28.09503576,30.75741676,Withdrawal
Al-Menia,All Areas,ElMenia,28.09769322,30.75527144,Withdrawal -Deposit – Forex
Al-Menia,All Areas,Almenia Algadida,28.0835967,30.80347317,Withdrawal -Deposit – Forex
Al-Menia,All Areas,ElMenia,28.09632289,30.75950544,Withdrawal
Al-Menia,All Areas,Samalut,28.388006,30.6716994,Withdrawal
Al-Menia,All Areas,Maghagha,28.61007677,30.68661399,Withdrawal
Al-Menia,All Areas,Almenia Algadida,28.10044298,30.79880427,Withdrawal
Al-Menia,All Areas,Abu Kerkas,27.93200703,30.82132265,Withdrawal -Deposit – Forex
Al-Menia,All Areas,Bani Mazar,28.49495827,30.80570606,Withdrawal
Al-Menia,All Areas,Abu Kerkas,27.92566223,30.81930375,Withdrawal
Al-Menia,All Areas,Samalut,28.31544948,30.7112433,Withdrawal
Al-Menia,All Areas,Almenia Algadida,28.07942301,30.82186121,Withdrawal
Al-Menia,All Areas,Deir Mawas,27.64300069,30.85498041,Withdrawal -Deposit – Forex
Al-Menia,All Areas,ElMenia,28.10039885,30.75354754,Withdrawal -Deposit – Forex
Al-Menia,All Areas,Malawi,27.73428402,30.84507229,Withdrawal -Deposit – Forex
Al-Menia,All Areas,Eledwa,28.69848754,30.77306191,Withdrawal
Al-Menia,All Areas,Malawi,27.73523653,30.84328835,Withdrawal
Al-Menia,All Areas,ElMenia,28.10914764,30.7516616,Withdrawal
Al-Menia,All Areas,ElMenia,28.11357702,30.74921605,Withdrawal
Al-Menia,All Areas,Eledwa,28.69295375,30.77668019,Withdrawal
Al-Menia,All Areas,Abu Kerkas,27.93947437,30.82362322,Withdrawal
Al-Menia,All Areas,Bani Mazar,28.50392065,30.80230138,Withdrawal
Al-Menia,All Areas,Matai,28.42108579,30.79008335,Withdrawal
Al-Menia,All Areas,Matai,28.42106733,30.7901148,Withdrawal
Al-Menia,All Areas,ElMenia,28.09659135,30.75405628,Withdrawal
Al-Menia,All Areas,Malawi,27.73848158,30.8425392,Withdrawal
Al-Menia,All Areas,Maghagha,28.647183,30.845959,Withdrawal
Al-Menia,All Areas,Eledwa,28.70119325,30.7724832,Withdrawal
Al-Menia,All Areas,Bani Mazar,28.49492709,30.81309101,Withdrawal
Al-Menia,All Areas,Maghagha,28.64827844,30.84513134,Withdrawal
Al-Menia,All Areas,ElMenia,28.12142828,30.74163879,Withdrawal
Al-Menia,All Areas,ElMenia,28.09810544,30.75940849,Withdrawal
Al-Menia,All Areas,Eledwa,28.69529737,30.77263248,Withdrawal
Al-Menia,All Areas,Abu Kerkas,27.92801188,30.81946122,Withdrawal
Al-Menia,All Areas,Bani Mazar,28.49746994,30.80446773,Withdrawal
Al-Menia,All Areas,Samalut,28.29778967,30.7171691,Withdrawal
Al-Menia,All Areas,Maghagha,28.64779607,30.84427245,Withdrawal
Al-Menia,All Areas,Maghagha,28.65523012,30.83132821,Withdrawal
Al-Menia,All Areas,Malawi,27.7309091,30.84015315,Withdrawal
Al-Menia,All Areas,ElMenia,28.09596611,30.76199947,Withdrawal
Al-Menia,All Areas,Matai,28.41989818,30.78846619,Withdrawal -Deposit – Forex
Al-Menia,All Areas,ElMenia,28.09168308,30.7644408,Withdrawal
Al-Menia,All Areas,Maghagha,28.64973595,30.83933781,Withdrawal
Al-Menia,All Areas,Malawi,27.73652576,30.84757427,Withdrawal
Al-Menia,All Areas,ElMenia,28.10225681,30.75295038,Withdrawal
Al-Menia,All Areas,Almenia Algadida,28.09272564,30.81185239,Withdrawal
Al-Menia,All Areas,ElMenia,28.09286984,30.76496099,Withdrawal
Al-Menia,All Areas,Tamwely Maghagha,28.65020127,30.84215794,Withdrawal-Deposit-Exchange
Al-Menia,All Areas,Tamwely Bani mazar,28.49436977,30.8070144,Withdrawal-Deposit-Exchange
Al-Menia,All Areas,Tamwely Malawy,27.73837057,30.84180088,Withdrawal-Deposit-Exchange
Al-Menia,All Areas,Misr Exchange matay,28.42056544,30.78749442,Withdrawal
Al-Menia,All Areas,Al Salam Preparatory School for Boys,28.09370559,30.74946632,Withdrawal
Al-Menia,All Areas,Bani Mohamed Soltan Local Unit,28.07024581,30.7823452,Withdrawal
Al-Menia,All Areas,Bani Mazar Health Insurance,28.50840318,30.79868478,Withdraw - Deposit - Exchange
Al-Menia,All Areas,Tamwely Deir Mawas,27.64422897,30.85639037,Withdraw - Deposit - Exchange
Al-Menia,All Areas,Algomhoria School,28.0876933,30.74981039,Withdrawal
Al-Menia,All Areas,Misr Exchange bani Mazar,28.49916009,30.80536275,Withdrawal
Al-Menia,All Areas,Alidwa Police Office,28.6954099,30.77332348,Withdrawal
Al-Menia,All Areas,Samalout Health Unit,28.32486602,30.70802829,Withdraw - Deposit - Exchange
Al-Menia,All Areas,Samalout Local Unit,28.313739,30.71296808,Withdraw - Deposit - Exchange
Al-Menia,All Areas,"One-day surgery hospital, Samalout",28.31058377,30.73588709,Withdraw - Deposit - Exchange
Al-Menia,All Areas,Al-Fashn Train Station,28.82314979,30.90352375,withdrawal
Al-Menia,All Areas,Abu Qurqas Train Station,27.93002254,30.82199295,full function
Al-Menia,All Areas,Tanmiah Balansoura,27.92024435,30.69838252,full function
Al-Menia,All Areas,Tanmiah Alfekria,27.93174553,30.83314367,full function
Al-Menia,All Areas,Abo Qurqas City Council,27.93947437,30.82362322,full function 
Al-Menia,All Areas,Abo Qorqas Educational Administration,27.93478075,30.8193743,full function
Al-Menia,All Areas,Abu Qurqas Police Station,27.92801188,30.81946122,full function 
Al-Menia,All Areas,Abu Qurqas sugar,27.92566223,30.81930375,full function
Al-Menia,All Areas,Tanmiah Alshikh Masoud,28.65456863,30.68819088,full function
Al-Menia,All Areas,Tanmiah Alidwa,28.70218368,30.77195333,full function
Al-Menia,All Areas,We Alidwa Almenia,28.694477,30.766051,full function
Al-Menia,All Areas,Aledwa City Council - Almenia,28.69295375,30.77668019,full function
Al-Menia,All Areas,Industrial school Alidwa,28.70119325,30.7724832,full function 
Al-Menia,All Areas,State Council Minya Branch,28.0987095,30.75621145,"withdrawal,deposit"
Al-Menia,All Areas,Tanmieah Alshikh Fadl,28.48919331,30.84904755,"withdrawal, deposit"
Al-Menia,All Areas,Tanmiah Delga,27.642655,30.69791786,"withdrawal , deposit"
Al-Menia,All Areas,Tanmiah Almenia,28.10486134,30.7515505,"withdrawal , deposit"
Al-Menia,All Areas,Tanmiah Alshorafa,28.11685008,30.76905102,"withdrawal , deposit"
Al-Menia,All Areas,Higher Institute of Engineering and Technology Industrial Zone,28.020528,30.856247,"with drawal , deposit"
Al-Menia,All Areas,Menia train station,28.09659135,30.75405628,
Al-Menia,All Areas,Minya Azhar region,28.10225681,30.75295038,"withdrawal,deposit"
Al-Menia,All Areas,General Authority for Health Insurance - Minya,28.09632289,30.75950544,"withdrawal,deposit"
Al-Menia,All Areas,  Tahrir Mosque Menia,28.11789004,30.74257455,"withdrawal,deposit"
Al-Menia,All Areas,Almenia Security Directorate,28.09810544,30.75940849,"withdrawal,deposit"
Al-Menia,All Areas,General Bureau of the Middle Egypt Electricity Company for Electricity Distribution 2,28.09186301,30.76335211,withdrawal deposit
Al-Menia,All Areas,Elfoul Minya Mosque,28.09596611,30.76199947,"withdrawal,deposit"
Al-Menia,All Areas,Oncology Institute in Minya Governorate,28.09168308,30.7644408,"withdrawal ,deposit"
Al-Menia,All Areas,Directorate of Youth and Sports Menia,28.12142828,30.74163879,"withdrawal , deposit"
Al-Menia,All Areas,Middle Egypt electricity sector,28.10914764,30.7516616,withdrawal . deposit
Al-Menia,All Areas,Abshadat Village Local Unit,27.838853,30.736476,"Full Function"
Al-Menia,All Areas,Damaris Mills,28.11451,30.749812,"Withdrawal, Deposit and Exchange"
Al-Menia,All Areas,Faculty of Computer and Information,28.125224,30.730689,Withdraw - Deposit - Exchange Currency
Al-Menia,Almenia Algadida,Almenia Algadida,28.0835967,30.80347317,Withdrawal -Deposit – Forex
Al-Menia,Almenia Algadida,Almenia Algadida,28.10044298,30.79880427,Withdrawal
Al-Menia,Almenia Algadida,Almenia Algadida,28.07942301,30.82186121,Withdrawal
Al-Menia,Almenia Algadida,Almenia Algadida,28.09272564,30.81185239,Withdrawal
Al-Menia,Bani Mazar,Bani Mazar,28.49495827,30.80570606,Withdrawal
Al-Menia,Bani Mazar,Bani Mazar,28.50392065,30.80230138,Withdrawal
Al-Menia,Bani Mazar,Bani Mazar,28.49492709,30.81309101,Withdrawal
Al-Menia,Bani Mazar,Bani Mazar,28.49746994,30.80446773,Withdrawal
Al-Menia,Bani Mazar,Tamwely Bani mazar,28.49436977,30.8070144,Withdrawal-Deposit-Exchange
Al-Menia,Bani Mazar,Bani Mazar Health Insurance,28.50840318,30.79868478,Withdraw - Deposit - Exchange
Al-Menia,Bani Mazar,Misr Exchange bani Mazar,28.49916009,30.80536275,Withdrawal
Al-Menia,Deir Mawas,Deir Mawas,27.64300069,30.85498041,Withdrawal -Deposit – Forex
Al-Menia,Deir Mawas,Tamwely Deir Mawas,27.64422897,30.85639037,Withdraw - Deposit - Exchange
Al-Menia,Eledwa,Eledwa,28.69848754,30.77306191,Withdrawal
Al-Menia,Eledwa,Eledwa,28.69295375,30.77668019,Withdrawal
Al-Menia,Eledwa,Eledwa,28.70119325,30.7724832,Withdrawal
Al-Menia,Eledwa,Eledwa,28.69529737,30.77263248,Withdrawal
Al-Menia,Eledwa,Alidwa Police Office,28.6954099,30.77332348,Withdrawal
Al-Menia,Eledwa,Tanmiah Alshikh Masoud,28.65456863,30.68819088,full function
Al-Menia,Eledwa,Tanmiah Alidwa,28.70218368,30.77195333,full function
Al-Menia,Eledwa,We Alidwa Almenia,28.694477,30.766051,full function
Al-Menia,Eledwa,Aledwa City Council - Almenia,28.69295375,30.77668019,full function
Al-Menia,Eledwa,Industrial school Alidwa,28.70119325,30.7724832,full function 
Al-Menia,ElMenia,ElMenia,28.11789004,30.74257455,Withdrawal
Al-Menia,ElMenia,ElMenia,28.08965662,30.76313344,Withdrawal
Al-Menia,ElMenia,ElMenia,28.09186301,30.76335211,Withdrawal
Al-Menia,ElMenia,ElMenia,28.09503576,30.75741676,Withdrawal
Al-Menia,ElMenia,ElMenia,28.09769322,30.75527144,Withdrawal -Deposit – Forex
Al-Menia,ElMenia,ElMenia,28.09632289,30.75950544,Withdrawal
Al-Menia,ElMenia,ElMenia,28.10039885,30.75354754,Withdrawal -Deposit – Forex
Al-Menia,ElMenia,ElMenia,28.10914764,30.7516616,Withdrawal
Al-Menia,ElMenia,ElMenia,28.11357702,30.74921605,Withdrawal
Al-Menia,ElMenia,ElMenia,28.09659135,30.75405628,Withdrawal
Al-Menia,ElMenia,ElMenia,28.12142828,30.74163879,Withdrawal
Al-Menia,ElMenia,ElMenia,28.09810544,30.75940849,Withdrawal
Al-Menia,ElMenia,ElMenia,28.09596611,30.76199947,Withdrawal
Al-Menia,ElMenia,ElMenia,28.09168308,30.7644408,Withdrawal
Al-Menia,ElMenia,ElMenia,28.10225681,30.75295038,Withdrawal
Al-Menia,ElMenia,ElMenia,28.09286984,30.76496099,Withdrawal
Al-Menia,ElMenia,Al Salam Preparatory School for Boys,28.09370559,30.74946632,Withdrawal
Al-Menia,ElMenia,Bani Mohamed Soltan Local Unit,28.07024581,30.7823452,Withdrawal
Al-Menia,ElMenia,Algomhoria School,28.0876933,30.74981039,Withdrawal
Al-Menia,ElMenia,Al-Fashn Train Station,28.82314979,30.90352375,withdrawal
Al-Menia,ElMenia,State Council Minya Branch,28.0987095,30.75621145,"withdrawal,deposit"
Al-Menia,ElMenia,Tanmieah Alshikh Fadl,28.48919331,30.84904755,"withdrawal, deposit"
Al-Menia,ElMenia,Tanmiah Delga,27.642655,30.69791786,"withdrawal , deposit"
Al-Menia,ElMenia,Tanmiah Almenia,28.10486134,30.7515505,"withdrawal , deposit"
Al-Menia,ElMenia,Tanmiah Alshorafa,28.11685008,30.76905102,"withdrawal , deposit"
Al-Menia,ElMenia,Higher Institute of Engineering and Technology Industrial Zone,28.020528,30.856247,"with drawal , deposit"
Al-Menia,ElMenia,Menia train station,28.09659135,30.75405628,
Al-Menia,ElMenia,Minya Azhar region,28.10225681,30.75295038,"withdrawal,deposit"
Al-Menia,ElMenia,General Authority for Health Insurance - Minya,28.09632289,30.75950544,"withdrawal,deposit"
Al-Menia,ElMenia,  Tahrir Mosque Menia,28.11789004,30.74257455,"withdrawal,deposit"
Al-Menia,ElMenia,Almenia Security Directorate,28.09810544,30.75940849,"withdrawal,deposit"
Al-Menia,ElMenia,General Bureau of the Middle Egypt Electricity Company for Electricity Distribution 2,28.09186301,30.76335211,withdrawal deposit
Al-Menia,ElMenia,Elfoul Minya Mosque,28.09596611,30.76199947,"withdrawal,deposit"
Al-Menia,ElMenia,Oncology Institute in Minya Governorate,28.09168308,30.7644408,"withdrawal ,deposit"
Al-Menia,ElMenia,Directorate of Youth and Sports Menia,28.12142828,30.74163879,"withdrawal , deposit"
Al-Menia,ElMenia,Middle Egypt electricity sector,28.10914764,30.7516616,withdrawal . deposit
Al-Menia,ElMenia,Damaris Mills,28.11451,30.749812,"Withdrawal, Deposit and Exchange"
Al-Menia,ElMenia,Faculty of Computer and Information,28.125224,30.730689,Withdraw - Deposit - Exchange Currency
Al-Menia,Maghagha,Maghagha,28.61007677,30.68661399,Withdrawal
Al-Menia,Maghagha,Maghagha,28.647183,30.845959,Withdrawal
Al-Menia,Maghagha,Maghagha,28.64827844,30.84513134,Withdrawal
Al-Menia,Maghagha,Maghagha,28.64779607,30.84427245,Withdrawal
Al-Menia,Maghagha,Maghagha,28.65523012,30.83132821,Withdrawal
Al-Menia,Maghagha,Maghagha,28.64973595,30.83933781,Withdrawal
Al-Menia,Maghagha,Tamwely Maghagha,28.65020127,30.84215794,Withdrawal-Deposit-Exchange
Al-Menia,Malawi,Malawi,27.73721029,30.84510069,Withdrawal
Al-Menia,Malawi,Malawi,27.73428402,30.84507229,Withdrawal -Deposit – Forex
Al-Menia,Malawi,Malawi,27.73523653,30.84328835,Withdrawal
Al-Menia,Malawi,Malawi,27.73848158,30.8425392,Withdrawal
Al-Menia,Malawi,Malawi,27.7309091,30.84015315,Withdrawal
Al-Menia,Malawi,Malawi,27.73652576,30.84757427,Withdrawal
Al-Menia,Malawi,Tamwely Malawy,27.73837057,30.84180088,Withdrawal-Deposit-Exchange
Al-Menia,Malawi,Abshadat Village Local Unit,27.838853,30.736476,"Full Function"
Al-Menia,Matai,Matai,28.42174871,30.79030213,Withdrawal
Al-Menia,Matai,Matai,28.42108579,30.79008335,Withdrawal
Al-Menia,Matai,Matai,28.42106733,30.7901148,Withdrawal
Al-Menia,Matai,Matai,28.41989818,30.78846619,Withdrawal -Deposit – Forex
Al-Menia,Matai,Misr Exchange matay,28.42056544,30.78749442,Withdrawal
Al-Menia,Samalut,Samalut,28.388006,30.6716994,Withdrawal
Al-Menia,Samalut,Samalut,28.31544948,30.7112433,Withdrawal
Al-Menia,Samalut,Samalut,28.29778967,30.7171691,Withdrawal
Al-Menia,Samalut,Samalout Health Unit,28.32486602,30.70802829,Withdraw - Deposit - Exchange
Al-Menia,Samalut,Samalout Local Unit,28.313739,30.71296808,Withdraw - Deposit - Exchange
Al-Menia,Samalut,"One-day surgery hospital, Samalout",28.31058377,30.73588709,Withdraw - Deposit - Exchange
Al-Monoufia,Al Sadat,Al Sadat,30.3118976,30.56125688,Withdrawal
Al-Monoufia,Al Sadat,Al Sadat,30.37081594,30.50226564,Withdrawal
Al-Monoufia,Al Sadat,Al Sadat,30.36567583,30.54049558,Withdrawal
Al-Monoufia,Al Sadat,Al Sadat,30.36645445,30.55657861,Withdrawal
Al-Monoufia,Al Sadat,Al Sadat,30.36672346,30.55062939,Withdrawal
Al-Monoufia,Al Sadat,Al Sadat,30.3728385,30.49884544,Withdrawal -Deposit – Forex
Al-Monoufia,Al Sadat,Al Sadat,30.36866623,30.50251143,Withdrawal -Deposit – Forex
Al-Monoufia,Al Sadat,Etisalat Sadat City,30.36319221,30.51076218,withdrawal
Al-Monoufia,Al Sadat,Orange Alsadat,30.36365333,30.51077523,Withdrawal-Deposit-Exchange
Al-Monoufia,Al Sadat,Spinneys Sadat,30.37144469,30.50084472,withdrawal deposit forex
Al-Monoufia,Al Sadat,Brothers Company for Oils and Soap,30.36567583,30.54049558,"withdrawal,forex,deposit"
Al-Monoufia,Al Sadat,Nile Company for spinning and fine weaving Sadat,30.36645445,30.55657861,withdrawal forex deposit
Al-Monoufia,Al Sadat,Sadat Police Station,30.37081594,30.50226564,"withdrawal , forex , deposit"
Al-Monoufia,Al Sadat,AlWady Company for Hatchery and Poultry Services,30.36672346,30.55062939,"withdrawal,forex,deposit"
Al-Monoufia,Al Sadat,AlWady Company for Hatchery and Poultry Services,30.36672346,30.55062939,withdrawal 
Al-Monoufia,All Areas,Ibn Alfared Shebin Alkoum islamic Branch 3,30.55424923,31.00715461,Withdrawal and Deposit
Al-Monoufia,All Areas,Ibn Alfared Shebin Alkoum islamic Branch 2,30.55427898,31.00715758,Withdrawal and Deposit
Al-Monoufia,All Areas,Ibn Alfared Shebin Alkoum islamic Branch 1,30.55432657,31.00716056,Withdrawal and Deposit
Al-Monoufia,All Areas,Martyr Adly Lotfi Afifi Primary School,30.52599464,31.09437895,Withdrawal - deposit - currency exchange
Al-Monoufia,All Areas,Kafr Sarawa Official Language School,30.24427681,31.08945126,cash withdrawal
Al-Monoufia,All Areas,Ashmoun,30.29316659,30.98149914,Withdrawal
Al-Monoufia,All Areas,Tala,30.68790674,30.99471761,Withdrawal
Al-Monoufia,All Areas,Al Sadat,30.3118976,30.56125688,Withdrawal
Al-Monoufia,All Areas,Al Sadat,30.37081594,30.50226564,Withdrawal
Al-Monoufia,All Areas,El-Shohadaa,30.59728933,30.90656687,Withdrawal
Al-Monoufia,All Areas,Shebin El Koum,30.55430137,31.00711653,Withdrawal -Deposit - Forex
Al-Monoufia,All Areas,Ashmoun,30.30353471,30.97332789,Withdrawal
Al-Monoufia,All Areas,El Bagour,30.38273894,31.00064843,Withdrawal
Al-Monoufia,All Areas,Shebin El Koum,30.57589793,31.01017052,Withdrawal
Al-Monoufia,All Areas,Ashmoun,30.30920433,31.0605589,Withdrawal
Al-Monoufia,All Areas,Menouf,30.41426381,30.94450454,Withdrawal
Al-Monoufia,All Areas,Shebin El Koum,30.60082747,31.041307,Withdrawal
Al-Monoufia,All Areas,Menouf,30.46331579,30.88752245,Withdrawal
Al-Monoufia,All Areas,Quesna,30.58129391,31.22205861,Withdrawal
Al-Monoufia,All Areas,Ashmoun,30.31441356,31.08952502,Withdrawal
Al-Monoufia,All Areas,Berket El Sabaa,30.63187962,31.08070321,Withdrawal
Al-Monoufia,All Areas,Shebin El Koum,30.54823699,31.01073831,Withdrawal
Al-Monoufia,All Areas,Quesna,30.54512995,31.18260863,Withdrawal
Al-Monoufia,All Areas,Tala,30.67769567,30.94437603,Withdrawal
Al-Monoufia,All Areas,Quesna,30.540407,31.17415664,Withdrawal
Al-Monoufia,All Areas,Quesna,30.54029682,31.17332252,Withdrawal
Al-Monoufia,All Areas,Quesna,30.54038715,31.17462595,Withdrawal
Al-Monoufia,All Areas,Quesna,30.54040118,31.17363902,Withdrawal
Al-Monoufia,All Areas,Shebin El Koum,30.55880249,31.00722124,Withdrawal
Al-Monoufia,All Areas,Shebin El Koum,30.55881173,31.00730114,Withdrawal
Al-Monoufia,All Areas,El Bagour,30.43259052,31.03664479,Withdrawal
Al-Monoufia,All Areas,Shebin El Koum,30.5559892,31.01096047,Withdrawal -Deposit – Forex
Al-Monoufia,All Areas,Al Sadat,30.36567583,30.54049558,Withdrawal
Al-Monoufia,All Areas,Al Sadat,30.36645445,30.55657861,Withdrawal
Al-Monoufia,All Areas,Al Sadat,30.36672346,30.55062939,Withdrawal
Al-Monoufia,All Areas,Quesna,30.54041049,31.17438014,Withdrawal
Al-Monoufia,All Areas,Ashmoun,30.2965704,30.97980597,Withdrawal
Al-Monoufia,All Areas,Sers Ellian,30.45158606,30.96481114,Withdrawal -Deposit – Forex
Al-Monoufia,All Areas,Al Sadat,30.3728385,30.49884544,Withdrawal -Deposit – Forex
Al-Monoufia,All Areas,Shebin El Koum,30.55524957,31.01664318,Withdrawal
Al-Monoufia,All Areas,Al Sadat,30.36866623,30.50251143,Withdrawal -Deposit – Forex
Al-Monoufia,All Areas,Quesna,30.54758033,31.13452329,Withdrawal
Al-Monoufia,All Areas,Menouf,30.45609388,30.9310698,Withdrawal
Al-Monoufia,All Areas,Shebin El Koum,30.56182536,31.00292091,Withdrawal
Al-Monoufia,All Areas,Quesna,30.55039098,31.17483064,Withdrawal
Al-Monoufia,All Areas,Quesna,30.54705979,31.13390634,Withdrawal
Al-Monoufia,All Areas,Quesna,30.54606958,31.18323008,Withdrawal
Al-Monoufia,All Areas,El-Shohadaa,30.59102957,30.897757,Withdrawal
Al-Monoufia,All Areas,Sers Ellian,30.44343136,30.96572088,Withdrawal
Al-Monoufia,All Areas,Quesna,30.54869599,31.14193183,Withdrawal
Al-Monoufia,All Areas,Menouf,30.46727999,30.93389284,Withdrawal
Al-Monoufia,All Areas,Shebin El Koum,30.56892296,30.99648812,Withdrawal
Al-Monoufia,All Areas,Shebin El Koum,30.54987999,31.01899892,Withdrawal
Al-Monoufia,All Areas,Shebin El Koum,30.5499139,31.01380557,Withdrawal
Al-Monoufia,All Areas,Shebin El Koum,30.55832456,31.00694918,Withdrawal
Al-Monoufia,All Areas,Shebin El Koum,30.55837776,31.00695643,Withdrawal
Al-Monoufia,All Areas,Shebin El Koum,30.56400814,31.01229817,Withdrawal
Al-Monoufia,All Areas,Ashmoun,30.27192922,31.02869738,Withdrawal -Deposit – Forex
Al-Monoufia,All Areas,Ashmoun,30.2720664,31.02867133,Withdrawal
Al-Monoufia,All Areas,Ashmoun,30.29569834,30.98899385,Withdrawal
Al-Monoufia,All Areas,Berket El Sabaa,30.63563168,31.08998307,Withdrawal
Al-Monoufia,All Areas,Shebin El Koum,30.54383033,31.04700979,Withdrawal
Al-Monoufia,All Areas,El Bagour,30.43281616,31.02891314,Withdrawal
Al-Monoufia,All Areas,Tala,30.68453152,30.95057886,Withdrawal
Al-Monoufia,All Areas,Berket El Sabaa,30.68148454,31.02411048,Withdrawal
Al-Monoufia,All Areas,Menouf,30.46657104,30.92734596,Withdrawal
Al-Monoufia,All Areas,Menouf,30.46395204,30.93600555,Withdrawal
Al-Monoufia,All Areas,Menouf,30.46324286,30.93558532,Withdrawal
Al-Monoufia,All Areas,Shebin El Koum,30.6006453,30.96565152,Withdrawal
Al-Monoufia,All Areas,Shebin El Koum,30.56190448,31.01630275,Withdrawal
Al-Monoufia,All Areas,Shebin El Koum,30.56909577,31.01033423,Withdrawal
Al-Monoufia,All Areas,Shebin El Koum,30.56662899,31.02703634,Withdrawal
Al-Monoufia,All Areas,Berket El Sabaa,30.6372058,31.08565809,Withdrawal
Al-Monoufia,All Areas,Etisalat Sadat City,30.36319221,30.51076218,withdrawal
Al-Monoufia,All Areas,Tamwely Ashmoun,30.29883387,30.98134531,Withdrawal-Deposit-Exchange
Al-Monoufia,All Areas,Shebin Alkoum Police office,30.55794079,31.00679304,Exchange 
Al-Monoufia,All Areas,Mit Berrah community building ,30.54785062,31.21164808,Exchange
Al-Monoufia,All Areas,Ramlet Alangab Village Local Unit,30.36995038,30.93897616,Exchange
Al-Monoufia,All Areas,The local unit Saqiet Abo Shaara Village,30.31441356,31.08952502,Exchange 
Al-Monoufia,All Areas,The local unit Saqiet Abo Shaara Village,30.31441356,31.08952502,Exchange
Al-Monoufia,All Areas,Shanshour Village Local Unit,30.3526449,30.99916144,Exchange 
Al-Monoufia,All Areas,Tamwely Alshohadaa,30.59405097,30.90585703,Withdrawal-Deposit-Exchange
Al-Monoufia,All Areas,Mit Khalaf diets Hospital,30.54383033,31.04700979,Exchange
Al-Monoufia,All Areas,Orange Alsadat,30.36365333,30.51077523,Withdrawal-Deposit-Exchange
Al-Monoufia,All Areas,Qashtoukh religious Institute,30.74265782,30.93409388,Withdrawal-Deposit-Exchange
Al-Monoufia,All Areas,Saman Village Youth Center,30.35225155,31.03265875,Withdrawal-Deposit-Exchange
Al-Monoufia,All Areas,Tamwely  Tala,30.67424489,30.93573386,full function 
Al-Monoufia,All Areas,Istabari Youth Center,30.49603177,31.05035042,withdrawal forex deposit
Al-Monoufia,All Areas,Damlej Youth Center,30.41308001,30.88472717,withdrawal forex deposit
Al-Monoufia,All Areas,Family Medicine Unit My Great Qulati,30.37120874,31.01098156,withdrawal forex deposit
Al-Monoufia,All Areas,State Council Menoufia Branch,30.55825047,31.00643133,withdrawal forex deposit
Al-Monoufia,All Areas,Al Majd Feed Company,30.54543199,31.16948493,"withdrawal , forex , deposit"
Al-Monoufia,All Areas,Doberke Primary School,30.51868673,30.88302688,"withdrawal , forex , deposit"
Al-Monoufia,All Areas,Sadud health unit,30.4191318,30.8983915,"withdrawal , forex , deposits"
Al-Monoufia,All Areas,Kafr Al-Sanabesah Primary School for Boys,30.43935205,30.90385215,سحب وايداع وتغيير عملة
Al-Monoufia,All Areas,Family Medicine Unit in Mit Masoud,30.52375008,31.04739285,with drawal deposit forex
Al-Monoufia,All Areas,The health unit in the village of Bitbes,30.6549948,30.9895224,withdrawal forex deposit 
Al-Monoufia,All Areas,Family Medicine Unit Shabrablola,30.49784522,30.97212704,withdrawal forex deposit
Al-Monoufia,All Areas,Singerj family medicine unit,30.51409679,30.94724329,"withdrawal,forex,deposit"
Al-Monoufia,All Areas,Menouf general hospital,30.4720714,30.9273746,withdrawal deposit forex
Al-Monoufia,All Areas,Behwash Schools Complex,30.39943932,30.88810383,withdrawal forex deposit
Al-Monoufia,All Areas,Abdul Khaleq Rajeh Primary School Al-Azhar Institute,30.254507,31.09067,withdrawal forex deposit
Al-Monoufia,All Areas,Spinneys Sadat,30.37144469,30.50084472,withdrawal deposit forex
Al-Monoufia,All Areas,Qouras Village Local Unit,30.27815952,31.06289184,withdrawal deposit forex
Al-Monoufia,All Areas,19011 Pharmacy Shebin Alkoum,30.55806921,31.01022237,withdrawal forex deposit
Al-Monoufia,All Areas,Shama Village local Unit,30.3821745,30.91627263,withdrawal forex deposit
Al-Monoufia,All Areas,Shama Village local Unit,30.3821745,30.91627263,withdrawal deposit forex
Al-Monoufia,All Areas,The local unit Shobra Bakhom,30.58129391,31.22205861,withdrawal forex deposit
Al-Monoufia,All Areas,Janzour Hospital Baraka Sabaa - Menoufia,30.68148454,31.02411048,withdrawal deposit forex
Al-Monoufia,All Areas,Telwana Village Medical Center,30.38273894,31.00064843,withdrawal deposit forex
Al-Monoufia,All Areas,Shebin Alkoum train station,30.56892296,30.99648812,withdrawal forex deposit
Al-Monoufia,All Areas,The local unit Barhim,30.46331579,30.88752245,"withdrawal,forex deposit"
Al-Monoufia,All Areas,Al Rashid Business Hotel - Monufia,30.55524957,30.55524957,withdrawal forex deposit
Al-Monoufia,All Areas,The local unit Centris (Menoufia),30.30920433,31.0605589,withdrawal forex deposit
Al-Monoufia,All Areas,Tala Central Hospital,30.68453152,30.95057886,withdrawal forex deposit
Al-Monoufia,All Areas,Alshohadaa City Council,30.59102957,30.897757,withdrawal forex deposit
Al-Monoufia,All Areas,Brothers Company for Oils and Soap,30.36567583,30.54049558,"withdrawal,forex,deposit"
Al-Monoufia,All Areas,Hermel Hospital in Menouf,30.46657104,30.92734596,"withdrawal,forex,deposit"
Al-Monoufia,All Areas,Nile Company for spinning and fine weaving Sadat,30.36645445,30.55657861,withdrawal forex deposit
Al-Monoufia,All Areas,The local unit Fisha Alkoubra -Menouf,30.41426381,30.94450454,withdrawal deposit forex
Al-Monoufia,All Areas,Sadat Police Station,30.37081594,30.50226564,"withdrawal , forex , deposit"
Al-Monoufia,All Areas,Albagour Central Hospital,30.43281616,31.02891314,"withdrawal,deposit,forex"
Al-Monoufia,All Areas,AlWady Company for Hatchery and Poultry Services,30.36672346,30.55062939,"withdrawal,forex,deposit"
Al-Monoufia,All Areas,AlWady Company for Hatchery and Poultry Services,30.36672346,30.55062939,withdrawal 
Al-Monoufia,All Areas,Central Bagour (Monufia),30.43259052,31.03664479,withdrawal
Al-Monoufia,All Areas,Menouf Police Station,30.45609388,30.9310698,withdrawal
Al-Monoufia,All Areas,Sers Allaian City Council Menoufia,30.44343136,30.96572088,withdrawal
Al-Monoufia,All Areas,Ashmoun Health Administration,30.30353471,30.97332789,withdrawal
Al-Monoufia,All Areas,Arab Medical Center Hospital - Ashmoun,30.2720664,31.02867133,سحب 
Al-Monoufia,All Areas,Ashmoun Central Hospital - Menoufia,30.29569834,30.98899385,سحب 
Al-Monoufia,All Areas,Ashmoun Police Station,30.29316659,30.98149914,withdrawal
Al-Monoufia,All Areas,Arab International Hospital in Menoufia,30.27192922,31.02869738,withdrawal
Al-Monoufia,All Areas,Alashmawi Mall in Batanoun,30.6006453,30.96565152,withdrawal
Al-Monoufia,All Areas,Algomhoria  Sports Club Shebin Alkoum,30.56909577,31.01033423,withdrawal
Al-Monoufia,All Areas,General Office of Menofia Governorate 2,30.55881173,31.00730114,withdrawal
Al-Monoufia,All Areas,Meet Khaqan Sports Club,30.56662899,31.02703634,withdrawal
Al-Monoufia,All Areas,Meet Khaqan Sports Club,30.56662899,31.02703634,withdrawal
Al-Monoufia,All Areas,Martyr Gamal Fayeq sector - Martyr Ali Khater sector,30.55039098,31.17483064,withdrawal
Al-Monoufia,All Areas,Menoufia Security Directorate 2,30.55837776,31.00695643,withdrawal
Al-Monoufia,All Areas,Shebin AlKoum Electricity Department,30.54823699,31.01073831,withdrawal
Al-Monoufia,All Areas,Quesna Police Station,30.54758033,31.13452329,withdrawal
Al-Monoufia,All Areas,Berket Alsabeaa Veterinary Department,30.63187962,31.08070321,withdrawal
Al-Monoufia,All Areas,Ophthalmology Hospital Shebin El Kom,30.56400814,31.01229817,withdrawal
Al-Monoufia,All Areas,Toshiba Alaraby Quesna 3,30.54038715,31.17462595,withdrawal
Al-Monoufia,All Areas,Toshiba Alaraby Quesna 2,30.54040118,31.17363902,withdrawal
Al-Monoufia,All Areas,Toshiba Alaraby Quesna 1,30.54029682,31.17332252,withdrawal
Al-Monoufia,All Areas,Kafr Alaskaria Helath Unit,30.657662,31.003798,"Full Function"
Al-Monoufia,All Areas,Zawiet Razin Local Unit,30.413759,30.855562,"GBRU سحب - إيداع - تغيير عملة - صرف من الإيداعات"
Al-Monoufia,All Areas,Abshish health unit,30.472469,31.087937,"GBRU سحب - إيداع - تغيير عملة - صرف من الإيداعات"
Al-Monoufia,All Areas,Denshway Local Unit,30.598833,30.8559,"GBRU سحب - إيداع - تغيير عملة - صرف من الإيداعات"
Al-Monoufia,All Areas,Hyper Alsharqia Menoufia,30.499658,31.150009,"withdrawal, deposit and exchange"
Al-Monoufia,All Areas,kamshosh Family Medicine Unit,30.416412,30.930803,"withdrawal, deposit and exchange"
Al-Monoufia,Ashmoun,Kafr Sarawa Official Language School,30.24427681,31.08945126,cash withdrawal
Al-Monoufia,Ashmoun,Ashmoun,30.29316659,30.98149914,Withdrawal
Al-Monoufia,Ashmoun,Ashmoun,30.30353471,30.97332789,Withdrawal
Al-Monoufia,Ashmoun,Ashmoun,30.30920433,31.0605589,Withdrawal
Al-Monoufia,Ashmoun,Ashmoun,30.31441356,31.08952502,Withdrawal
Al-Monoufia,Ashmoun,Ashmoun,30.2965704,30.97980597,Withdrawal
Al-Monoufia,Ashmoun,Ashmoun,30.27192922,31.02869738,Withdrawal -Deposit – Forex
Al-Monoufia,Ashmoun,Ashmoun,30.2720664,31.02867133,Withdrawal
Al-Monoufia,Ashmoun,Ashmoun,30.29569834,30.98899385,Withdrawal
Al-Monoufia,Ashmoun,Tamwely Ashmoun,30.29883387,30.98134531,Withdrawal-Deposit-Exchange
Al-Monoufia,Ashmoun,Ramlet Alangab Village Local Unit,30.36995038,30.93897616,Exchange
Al-Monoufia,Ashmoun,The local unit Saqiet Abo Shaara Village,30.31441356,31.08952502,Exchange 
Al-Monoufia,Ashmoun,The local unit Saqiet Abo Shaara Village,30.31441356,31.08952502,Exchange
Al-Monoufia,Ashmoun,Shanshour Village Local Unit,30.3526449,30.99916144,Exchange 
Al-Monoufia,Ashmoun,Qouras Village Local Unit,30.27815952,31.06289184,withdrawal deposit forex
Al-Monoufia,Ashmoun,Shama Village local Unit,30.3821745,30.91627263,withdrawal forex deposit
Al-Monoufia,Ashmoun,Shama Village local Unit,30.3821745,30.91627263,withdrawal deposit forex
Al-Monoufia,Ashmoun,The local unit Centris (Menoufia),30.30920433,31.0605589,withdrawal forex deposit
Al-Monoufia,Ashmoun,Ashmoun Health Administration,30.30353471,30.97332789,withdrawal
Al-Monoufia,Ashmoun,Arab Medical Center Hospital - Ashmoun,30.2720664,31.02867133,سحب 
Al-Monoufia,Ashmoun,Ashmoun Central Hospital - Menoufia,30.29569834,30.98899385,سحب 
Al-Monoufia,Ashmoun,Ashmoun Police Station,30.29316659,30.98149914,withdrawal
Al-Monoufia,Ashmoun,Arab International Hospital in Menoufia,30.27192922,31.02869738,withdrawal
Al-Monoufia,Berket El Sabaa,Berket El Sabaa,30.63187962,31.08070321,Withdrawal
Al-Monoufia,Berket El Sabaa,Berket El Sabaa,30.63563168,31.08998307,Withdrawal
Al-Monoufia,Berket El Sabaa,Berket El Sabaa,30.68148454,31.02411048,Withdrawal
Al-Monoufia,Berket El Sabaa,Berket El Sabaa,30.6372058,31.08565809,Withdrawal
Al-Monoufia,Berket El Sabaa,Janzour Hospital Baraka Sabaa - Menoufia,30.68148454,31.02411048,withdrawal deposit forex
Al-Monoufia,Berket El Sabaa,Berket Alsabeaa Veterinary Department,30.63187962,31.08070321,withdrawal
Al-Monoufia,El Bagour,El Bagour,30.38273894,31.00064843,Withdrawal
Al-Monoufia,El Bagour,El Bagour,30.43259052,31.03664479,Withdrawal
Al-Monoufia,El Bagour,El Bagour,30.43281616,31.02891314,Withdrawal
Al-Monoufia,El Bagour,Saman Village Youth Center,30.35225155,31.03265875,Withdrawal-Deposit-Exchange
Al-Monoufia,El Bagour,Family Medicine Unit My Great Qulati,30.37120874,31.01098156,withdrawal forex deposit
Al-Monoufia,El Bagour,Telwana Village Medical Center,30.38273894,31.00064843,withdrawal deposit forex
Al-Monoufia,El Bagour,Albagour Central Hospital,30.43281616,31.02891314,"withdrawal,deposit,forex"
Al-Monoufia,El Bagour,Central Bagour (Monufia),30.43259052,31.03664479,withdrawal
Al-Monoufia,El Bagour,Abshish health unit,30.472469,31.087937,"GBRU سحب - إيداع - تغيير عملة - صرف من الإيداعات"
Al-Monoufia,El-Shohadaa,El-Shohadaa,30.59728933,30.90656687,Withdrawal
Al-Monoufia,El-Shohadaa,El-Shohadaa,30.59102957,30.897757,Withdrawal
Al-Monoufia,El-Shohadaa,Tamwely Alshohadaa,30.59405097,30.90585703,Withdrawal-Deposit-Exchange
Al-Monoufia,El-Shohadaa,Alshohadaa City Council,30.59102957,30.897757,withdrawal forex deposit
Al-Monoufia,El-Shohadaa,Denshway Local Unit,30.598833,30.8559,"GBRU سحب - إيداع - تغيير عملة - صرف من الإيداعات"
Al-Monoufia,Menouf,Menouf,30.41426381,30.94450454,Withdrawal
Al-Monoufia,Menouf,Menouf,30.46331579,30.88752245,Withdrawal
Al-Monoufia,Menouf,Menouf,30.45609388,30.9310698,Withdrawal
Al-Monoufia,Menouf,Menouf,30.46727999,30.93389284,Withdrawal
Al-Monoufia,Menouf,Menouf,30.46657104,30.92734596,Withdrawal
Al-Monoufia,Menouf,Menouf,30.46395204,30.93600555,Withdrawal
Al-Monoufia,Menouf,Menouf,30.46324286,30.93558532,Withdrawal
Al-Monoufia,Menouf,Damlej Youth Center,30.41308001,30.88472717,withdrawal forex deposit
Al-Monoufia,Menouf,Doberke Primary School,30.51868673,30.88302688,"withdrawal , forex , deposit"
Al-Monoufia,Menouf,Sadud health unit,30.4191318,30.8983915,"withdrawal , forex , deposits"
Al-Monoufia,Menouf,Kafr Al-Sanabesah Primary School for Boys,30.43935205,30.90385215,سحب وايداع وتغيير عملة
Al-Monoufia,Menouf,Family Medicine Unit Shabrablola,30.49784522,30.97212704,withdrawal forex deposit
Al-Monoufia,Menouf,Singerj family medicine unit,30.51409679,30.94724329,"withdrawal,forex,deposit"
Al-Monoufia,Menouf,Menouf general hospital,30.4720714,30.9273746,withdrawal deposit forex
Al-Monoufia,Menouf,Behwash Schools Complex,30.39943932,30.88810383,withdrawal forex deposit
Al-Monoufia,Menouf,Abdul Khaleq Rajeh Primary School Al-Azhar Institute,30.254507,31.09067,withdrawal forex deposit
Al-Monoufia,Menouf,The local unit Barhim,30.46331579,30.88752245,"withdrawal,forex deposit"
Al-Monoufia,Menouf,Hermel Hospital in Menouf,30.46657104,30.92734596,"withdrawal,forex,deposit"
Al-Monoufia,Menouf,The local unit Fisha Alkoubra -Menouf,30.41426381,30.94450454,withdrawal deposit forex
Al-Monoufia,Menouf,Menouf Police Station,30.45609388,30.9310698,withdrawal
Al-Monoufia,Menouf,Sers Allaian City Council Menoufia,30.44343136,30.96572088,withdrawal
Al-Monoufia,Menouf,Zawiet Razin Local Unit,30.413759,30.855562,"GBRU سحب - إيداع - تغيير عملة - صرف من الإيداعات"
Al-Monoufia,Menouf,kamshosh Family Medicine Unit,30.416412,30.930803,"withdrawal, deposit and exchange"
Al-Monoufia,Quesna,Martyr Adly Lotfi Afifi Primary School,30.52599464,31.09437895,Withdrawal - deposit - currency exchange
Al-Monoufia,Quesna,Quesna,30.58129391,31.22205861,Withdrawal
Al-Monoufia,Quesna,Quesna,30.54512995,31.18260863,Withdrawal
Al-Monoufia,Quesna,Quesna,30.540407,31.17415664,Withdrawal
Al-Monoufia,Quesna,Quesna,30.54029682,31.17332252,Withdrawal
Al-Monoufia,Quesna,Quesna,30.54038715,31.17462595,Withdrawal
Al-Monoufia,Quesna,Quesna,30.54040118,31.17363902,Withdrawal
Al-Monoufia,Quesna,Quesna,30.54041049,31.17438014,Withdrawal
Al-Monoufia,Quesna,Quesna,30.54758033,31.13452329,Withdrawal
Al-Monoufia,Quesna,Quesna,30.55039098,31.17483064,Withdrawal
Al-Monoufia,Quesna,Quesna,30.54705979,31.13390634,Withdrawal
Al-Monoufia,Quesna,Quesna,30.54606958,31.18323008,Withdrawal
Al-Monoufia,Quesna,Quesna,30.54869599,31.14193183,Withdrawal
Al-Monoufia,Quesna,Mit Berrah community building ,30.54785062,31.21164808,Exchange
Al-Monoufia,Quesna,Al Majd Feed Company,30.54543199,31.16948493,"withdrawal , forex , deposit"
Al-Monoufia,Quesna,The local unit Shobra Bakhom,30.58129391,31.22205861,withdrawal forex deposit
Al-Monoufia,Quesna,Quesna Police Station,30.54758033,31.13452329,withdrawal
Al-Monoufia,Quesna,Toshiba Alaraby Quesna 3,30.54038715,31.17462595,withdrawal
Al-Monoufia,Quesna,Toshiba Alaraby Quesna 2,30.54040118,31.17363902,withdrawal
Al-Monoufia,Quesna,Toshiba Alaraby Quesna 1,30.54029682,31.17332252,withdrawal
Al-Monoufia,Quesna,Hyper Alsharqia Menoufia,30.499658,31.150009,"withdrawal, deposit and exchange"
Al-Monoufia,Sers Ellian,Sers Ellian,30.45158606,30.96481114,Withdrawal -Deposit – Forex
Al-Monoufia,Sers Ellian,Sers Ellian,30.44343136,30.96572088,Withdrawal
Al-Monoufia,Shebin El Koum,Ibn Alfared Shebin Alkoum islamic Branch 3,30.55424923,31.00715461,Withdrawal and Deposit
Al-Monoufia,Shebin El Koum,Ibn Alfared Shebin Alkoum islamic Branch 2,30.55427898,31.00715758,Withdrawal and Deposit
Al-Monoufia,Shebin El Koum,Ibn Alfared Shebin Alkoum islamic Branch 1,30.55432657,31.00716056,Withdrawal and Deposit
Al-Monoufia,Shebin El Koum,Shebin El Koum,30.55430137,31.00711653,Withdrawal -Deposit - Forex
Al-Monoufia,Shebin El Koum,Shebin El Koum,30.57589793,31.01017052,Withdrawal
Al-Monoufia,Shebin El Koum,Shebin El Koum,30.60082747,31.041307,Withdrawal
Al-Monoufia,Shebin El Koum,Shebin El Koum,30.54823699,31.01073831,Withdrawal
Al-Monoufia,Shebin El Koum,Shebin El Koum,30.55880249,31.00722124,Withdrawal
Al-Monoufia,Shebin El Koum,Shebin El Koum,30.55881173,31.00730114,Withdrawal
Al-Monoufia,Shebin El Koum,Shebin El Koum,30.5559892,31.01096047,Withdrawal -Deposit – Forex
Al-Monoufia,Shebin El Koum,Shebin El Koum,30.55524957,31.01664318,Withdrawal
Al-Monoufia,Shebin El Koum,Shebin El Koum,30.56182536,31.00292091,Withdrawal
Al-Monoufia,Shebin El Koum,Shebin El Koum,30.56892296,30.99648812,Withdrawal
Al-Monoufia,Shebin El Koum,Shebin El Koum,30.54987999,31.01899892,Withdrawal
Al-Monoufia,Shebin El Koum,Shebin El Koum,30.5499139,31.01380557,Withdrawal
Al-Monoufia,Shebin El Koum,Shebin El Koum,30.55832456,31.00694918,Withdrawal
Al-Monoufia,Shebin El Koum,Shebin El Koum,30.55837776,31.00695643,Withdrawal
Al-Monoufia,Shebin El Koum,Shebin El Koum,30.56400814,31.01229817,Withdrawal
Al-Monoufia,Shebin El Koum,Shebin El Koum,30.54383033,31.04700979,Withdrawal
Al-Monoufia,Shebin El Koum,Shebin El Koum,30.6006453,30.96565152,Withdrawal
Al-Monoufia,Shebin El Koum,Shebin El Koum,30.56190448,31.01630275,Withdrawal
Al-Monoufia,Shebin El Koum,Shebin El Koum,30.56909577,31.01033423,Withdrawal
Al-Monoufia,Shebin El Koum,Shebin El Koum,30.56662899,31.02703634,Withdrawal
Al-Monoufia,Shebin El Koum,Shebin Alkoum Police office,30.55794079,31.00679304,Exchange 
Al-Monoufia,Shebin El Koum,Mit Khalaf diets Hospital,30.54383033,31.04700979,Exchange
Al-Monoufia,Shebin El Koum,Istabari Youth Center,30.49603177,31.05035042,withdrawal forex deposit
Al-Monoufia,Shebin El Koum,State Council Menoufia Branch,30.55825047,31.00643133,withdrawal forex deposit
Al-Monoufia,Shebin El Koum,Family Medicine Unit in Mit Masoud,30.52375008,31.04739285,with drawal deposit forex
Al-Monoufia,Shebin El Koum,Shebin Alkoum train station,30.56892296,30.99648812,withdrawal forex deposit
Al-Monoufia,Shebin El Koum,Al Rashid Business Hotel - Monufia,30.55524957,30.55524957,withdrawal forex deposit
Al-Monoufia,Shebin El Koum,Alashmawi Mall in Batanoun,30.6006453,30.96565152,withdrawal
Al-Monoufia,Shebin El Koum,Algomhoria  Sports Club Shebin Alkoum,30.56909577,31.01033423,withdrawal
Al-Monoufia,Shebin El Koum,General Office of Menofia Governorate 2,30.55881173,31.00730114,withdrawal
Al-Monoufia,Shebin El Koum,Meet Khaqan Sports Club,30.56662899,31.02703634,withdrawal
Al-Monoufia,Shebin El Koum,Meet Khaqan Sports Club,30.56662899,31.02703634,withdrawal
Al-Monoufia,Shebin El Koum,Martyr Gamal Fayeq sector - Martyr Ali Khater sector,30.55039098,31.17483064,withdrawal
Al-Monoufia,Shebin El Koum,Menoufia Security Directorate 2,30.55837776,31.00695643,withdrawal
Al-Monoufia,Shebin El Koum,Shebin AlKoum Electricity Department,30.54823699,31.01073831,withdrawal
Al-Monoufia,Shebin El Koum,Ophthalmology Hospital Shebin El Kom,30.56400814,31.01229817,withdrawal
Al-Monoufia,Shebin El Koum,19011 Pharmacy Shebin Alkoum,30.55806921,31.01022237,withdrawal forex deposit
Al-Monoufia,Tala,Tala,30.68790674,30.99471761,Withdrawal
Al-Monoufia,Tala,Tala,30.67769567,30.94437603,Withdrawal
Al-Monoufia,Tala,Tala,30.68453152,30.95057886,Withdrawal
Al-Monoufia,Tala,Qashtoukh religious Institute,30.74265782,30.93409388,Withdrawal-Deposit-Exchange
Al-Monoufia,Tala,Tamwely  Tala,30.67424489,30.93573386,full function 
Al-Monoufia,Tala,The health unit in the village of Bitbes,30.6549948,30.9895224,withdrawal forex deposit 
Al-Monoufia,Tala,Tala Central Hospital,30.68453152,30.95057886,withdrawal forex deposit
Al-Monoufia,Tala,Kafr Alaskaria Helath Unit,30.657662,31.003798,"Full Function"
Al-Sharkia,10th of Ramadan,10th of Ramadan,30.245731,31.731391,Withdrawal
Al-Sharkia,10th of Ramadan,10th of Ramadan,30.29684035,31.74608295,Withdrawal
Al-Sharkia,10th of Ramadan,10th of Ramadan,30.287812,31.749622,Withdrawal
Al-Sharkia,10th of Ramadan,10th of Ramadan,30.3203,31.7784,Withdrawal
Al-Sharkia,10th of Ramadan,10th of Ramadan,30.310257,31.777569,Withdrawal
Al-Sharkia,10th of Ramadan,10th of Ramadan,30.307605,31.740498,Withdrawal
Al-Sharkia,10th of Ramadan,10th of Ramadan,30.29700409,31.74647885,Withdrawal
Al-Sharkia,10th of Ramadan,10th of Ramadan,30.241871,31.726754,Withdrawal -Deposit – Forex
Al-Sharkia,10th of Ramadan,Hyper 1 - 10th of Ramadan,30.24187143,31.72675367,8 to 5
Al-Sharkia,10th of Ramadan,19011 Pharmacy 10 Of Ramadan,30.29591906,31.77665078,Withdrawal only
Al-Sharkia,10th of Ramadan,Watania Belbis 2,30.29817851,31.48543332,
Al-Sharkia,10th of Ramadan,10 Ramadan Electricity Company,30.307605,31.740498,Withdrawal Only
Al-Sharkia,10th of Ramadan,Delta Pharm Company,30.3203,31.7784,Withdrawal Only
Al-Sharkia,10th of Ramadan,Imas Company 0 Ramadan,30.287812,31.749622,Withdrawal Only
Al-Sharkia,10th of Ramadan,The National Company for Maize Products,30.245731,31.731391,"Cash Dispenser only"
Al-Sharkia,10th of Ramadan,Arafa Mall 10th of Ramadan,30.264861,31.760616,"Full Function"
Al-Sharkia,Abu Hammad,Abu Hammad,30.53301507,31.67337145,Withdrawal -Deposit - Forex
Al-Sharkia,Abu Hammad,Abu Hammad,30.532803,31.673696,Withdrawal
Al-Sharkia,Abu Hammad,Abu Hammad,30.532816,31.673637,Withdrawal
Al-Sharkia,Abu Hammad,Abu Hammad,30.5541,31.733976,Withdrawal
Al-Sharkia,Abu Hammad,Orange - Abo Hamad,30.5391071,31.6782719,8am-5pm
Al-Sharkia,Abu Hammad,Abo Hammad city center 2,30.532816,31.673637,Withdrawal Only
Al-Sharkia,Abu Hammad,Abo Hammad city center,30.532803,31.673696,Withdrawal Only
Al-Sharkia,Abu Hammad,Non-commissioned officers institute of teachers in Abu Hammad,30.5541,31.733976,Withdrawal Only
Al-Sharkia,Abu Kbier,Abu Kbier,30.665654,31.691813,Withdrawal
Al-Sharkia,Abu Kbier,Abu Kbier,30.72257459,31.66312074,Withdrawal
Al-Sharkia,Abu Kbier,Abu Kbier,30.723742,31.664752,Withdrawal
Al-Sharkia,Abu Kbier,Abu Kbier,30.719829,31.6592,Withdrawal
Al-Sharkia,Abu Kbier,Abu Kbier,30.729688,31.669739,Withdrawal
