Governate,Area Name,ATM Name,Latitude,Longitude,Description
Al-Behera,Abu Al Matamir,Abu Al Matamir,30.912211,30.170589,withdraw
Al-Behera,Abu Al Matamir,Abu Al Matamir,30.91078908,30.17701905,full function
Al-Behera,Abu Al Matamir,Abu Al Matamir,30.81405902,29.98830245,full function
Al-Behera,Abu Al Matamir,Abu Al Matamir,30.91584,30.176447,withdraw
Al-Behera,Abu Al Matamir,Higher Institute of Administrative Scie. Janaklis,30.8601142,30.15493118,withdraw
Al-Behera,Abu Al Matamir,Etsalat - Almostaqbal Franchiez -Abo Almatamir,30.9063534,30.1736873,withdraw
Al-Behera,Abu Al Matamir,Etsalat Albehera,30.91158881,30.17717889,withdraw
Al-Behera,Abu Al Matamir,Abo Almatamir Health Administration,30.912211,30.170589,cash dispenser only
Al-Behera,Abu Al Matamir,Abu Almatamir Central Hospital,30.91584,30.176447,cash dispenser only
Al-Behera,Abu Al Matamir,Tamwely Abu El Matamir,30.91290404,30.17689168,withdraw and deposit
Al-Behera,Abu Al Matamir,Tanmiya Abu El Matamir,30.91144225,30.17490715,withdraw and deposit
Al-Behera,Abu Al Matamir,Tanmiya Nasser,30.92230447,29.95121672,withdraw and deposit
Al-Behera,Abu Homos,Abu Homos,31.099697,30.311892,withdraw
Al-Behera,Abu Homos,Abu Homos,31.100602,30.31555,withdraw
Al-Behera,Abu Homos,Abu Homos,31.1033,30.310782,withdraw
Al-Behera,Abu Homos,Abu Homos,31.0978262,30.31474322,full function
Al-Behera,Abu Homos,Abu Homos,31.105004,30.314502,withdraw
Al-Behera,Abu Homos,Abo Homos Educational Administration,31.1033,30.310782,withdraw
Al-Behera,Abu Homos,The local unit Abo Homos,31.100602,30.31555,withdraw
Al-Behera,Abu Homos,Abu Homos Central Hospital,31.105004,30.314502,cash dispenser only
Al-Behera,Abu Homos,Abo Homos Health Administration,31.099697,30.311892,cash dispenser only
Al-Behera,Al Mahmoudeya,Al Mahmoudeya,31.18275058,30.52755669,full function
Al-Behera,Al Mahmoudeya,Al Mahmoudeya,31.184945,30.52952,withdraw
Al-Behera,Al Mahmoudeya,Al Mahmoudeya,31.175947,30.529477,withdraw
Al-Behera,Al Mahmoudeya,Al Mahmoudeya,31.183878,30.519738,withdraw
Al-Behera,Al Mahmoudeya,Misr Exchange Almahmoudia,31.1824926,30.52713284,withdraw
Al-Behera,Al Mahmoudeya,Etsalat - Almostaqbal Franchiez -Almahmoudia,31.1838385,30.52745446,withdraw
Al-Behera,Al Mahmoudeya,Alatf Electricity Production Station - Mahmoudiya,31.184945,30.52952,withdraw
Al-Behera,Al Mahmoudeya,Mahmoudia power plant,31.175947,30.529477,withdraw
Al-Behera,Al Mahmoudeya,Mahmoudia General Hospital,31.183878,30.519738,withdraw
Al-Behera,Al Mahmoudeya,Tanmiya Mahmoudia,31.18416312,30.52710423,withdraw and deposit
Al-Behera,Al Rahmaneya,Al Rahmaneya,31.10691837,30.64172916,full function
Al-Behera,Al Rahmaneya,Al Rahmaneya,31.103395,30.638362,withdraw
Al-Behera,Al Rahmaneya,Tanmiya Rahmania,31.10958367,30.63910172,withdraw and deposit
Al-Behera,Alnobaria Algadida,Alnobaria Algadida,30.67059438,30.07277643,withdraw
Al-Behera,Alnobaria Algadida,Alnobaria Algadida,30.671835,30.073109,withdraw
Al-Behera,Alnobaria Algadida,Alnobaria Algadida,30.632194,30.2275,withdraw
Al-Behera,Alnobaria Algadida,Alnobaria Algadida,30.662002,30.08606,withdraw
Al-Behera,Alnobaria Algadida,New Nubaria City Development Authority,30.671835,30.073109,cash dispenser only
Al-Behera,Alnobaria Algadida,Alwady Company For Feed - Alnoubaria,30.662002,30.08606,cash dispenser only
Al-Behera,Alnobaria Algadida,Noubaria Company for the manufacture and refining of sugar,30.632194,30.2275,cash dispenser only
Al-Behera,Damanhour,Damanhour,31.026177,30.451221,withdraw
Al-Behera,Damanhour,Damanhour,31.051574,30.463915,withdraw
Al-Behera,Damanhour,Damanhour,31.032701,30.464771,withdraw
Al-Behera,Damanhour,Damanhour,31.036388,30.457638,full function
Al-Behera,Damanhour,Damanhour,31.037774,30.433125,full function
Al-Behera,Damanhour,Damanhour,31.052879,30.462731,full function
Al-Behera,Damanhour,Damanhour,31.03936,30.455253,withdraw
Al-Behera,Damanhour,Damanhour,31.03975,30.458095,withdraw
Al-Behera,Damanhour,Damanhour,31.044442,30.470853,withdraw
Al-Behera,Damanhour,Damanhour,31.03450281,30.47469798,withdraw
Al-Behera,Damanhour,Damanhour,31.03449464,30.47471262,withdraw
Al-Behera,Damanhour,Damanhour,31.04241948,30.46890924,full function
Al-Behera,Damanhour,Damanhour,31.036522,30.456495,withdraw
Al-Behera,Damanhour,Damanhour,31.04408,30.475274,withdraw
Al-Behera,Damanhour,Damanhour,31.041921,30.473102,withdraw
Al-Behera,Damanhour,Damanhour,31.040307,30.468207,withdraw
Al-Behera,Damanhour,19011 Pharmacy Damanhour,31.04438807,30.4667885,withdraw
Al-Behera,Damanhour,Albuhiera Azhar Area 2,31.05193166,30.46430279,full function
Al-Behera,Damanhour,Middle Damanhour Electricity Company,31.04444207,30.47085251,withdraw
Al-Behera,Damanhour,Damanhour train station,31.03428061,30.46823018,withdraw
Al-Behera,Damanhour,Carrefour - Damanhour,31.03732147,30.45559064,full function
Al-Behera,Damanhour,Sharnoub Community Development Association,31.013742,30.57017929,full function
Al-Behera,Damanhour,We Ciao Mall Albuhira,31.0463062,30.4652941,full function
Al-Behera,Damanhour,Damanhour State Cases Authority ,31.040307,30.468207,withdraw
Al-Behera,Damanhour,General Office of the Middle Delta Company for the production of electricity in Damanhour,31.03936,30.455253,withdraw
Al-Behera,Damanhour,General Office of Buhaira Governorate,31.03975,30.458095,withdraw
Al-Behera,Damanhour,Behira Azhar Area,31.051574,30.463915,cash dispenser only
Al-Behera,Damanhour,Albehira Agricultural Administration,31.026177,30.451221,cash dispenser only
Al-Behera,Damanhour,Albuhaira Youth and Sports Directorate,31.036522,30.456495,cash dispenser only
Al-Behera,Damanhour,The local unit of the Council and the city of Damanhur,31.032701,30.464771,cash dispenser only
Al-Behera,Damanhour,Alsorady Hypermarket - Damanhour,31.041921,30.473102,cash dispenser only
Al-Behera,Damanhour,Directorate of Roads and Transportation in Beheira,31.04408,30.475274,cash dispenser only
Al-Behera,Damanhour,Damanhour University - Faculty of Commerce,31.037774,30.433125,full function
Al-Behera,Damanhour,Ranin Damanhour,31.02842246,30.44735618,full function
Al-Behera,Damanhour,Damanhour University - Faculty of Pharmacy and Science,31.052879,30.462731,full function
Al-Behera,Damanhour,Damanhour University - Faculty of Arts,31.036388,30.457638,full function
Al-Behera,Damanhour,The local unit of the village of Aflaqa,31.06715304,30.47713406,withdraw and deposit
Al-Behera,Damanhour,Egypt Exchange Damanhour,31.032126,30.451576,full function
Al-Behera,Damanhour,Boys Damanhour Secondary Institute Al-Azhar,31.03146,30.459748,full function
Al-Behera,Edco,Edco,31.301812,30.301819,full function
Al-Behera,Edco,Edco Electrical Engineering -Rashid - Beheira Governorate,31.301812,30.301819,cash dispenser only
Al-Behera,El Dalangat,El Dalangat,30.829702,30.535141,withdraw
Al-Behera,El Dalangat,El Dalangat,30.768322,30.594444,withdraw
Al-Behera,El Dalangat,El Dalangat,30.827806,30.536877,withdraw
Al-Behera,El Dalangat,El Dalangat,30.82785,30.536831,withdraw
Al-Behera,El Dalangat,El Dalangat,30.833752,30.530286,withdraw
Al-Behera,El Dalangat,Etisalat -Franchiez Almostaqbal - Albostan,30.82974495,30.52961337,withdraw
Al-Behera,El Dalangat,The local unit Alwafaieah Village,30.76832208,30.59444399,withdraw
Al-Behera,El Dalangat,Delengat City Council,30.827806,30.536877,cash dispenser only
Al-Behera,El Dalangat,Aldelengat Health Administration,30.829702,30.535141,cash dispenser only
Al-Behera,El Dalangat,Delengat City Council 2,30.82785,30.536831,cash dispenser only
Al-Behera,El Dalangat,Dilangat Central Hospital,30.833752,30.530286,cash dispenser only
Al-Behera,El Dalangat,Tamwely Al-Dalengat,30.82955574,30.53589971,withdraw and deposit
Al-Behera,Etay Al Barroud,Etay Al Barroud,30.886466,30.662967,withdraw
Al-Behera,Etay Al Barroud,Etay Al Barroud,30.88483388,30.66364617,withdraw
Al-Behera,Etay Al Barroud,Etay Al Barroud,30.884864,30.665297,withdraw
Al-Behera,Etay Al Barroud,Etay Al Barroud,30.886553,30.667319,withdraw
Al-Behera,Etay Al Barroud,Etay Al Barroud,30.880486,30.653383,full function
Al-Behera,Etay Al Barroud,Itay Albaroud Court,30.88655,30.667319,withdraw
Al-Behera,Etay Al Barroud,Al Hoota Health Unit,30.86942495,30.70074488,full function
Al-Behera,Etay Al Barroud,Itay Albaroud  Educational Administration,30.886466,30.662967,cash dispenser only
Al-Behera,Etay Al Barroud,Agricultural Administration Itai El-Baroud - Beheira,30.88563219,30.65812817,full function
Al-Behera,Etay Al Barroud,Itay Albaroud Electrical Engineering,30.880486,30.653383,full function
Al-Behera,Etay Al Barroud,Tamwely Etay Al-Baroud,30.88808594,30.67314422,withdraw and deposit
Al-Behera,Housh Eissa,Housh Eissa,30.9135036,30.29365764,withdraw
Al-Behera,Housh Eissa,Housh Eissa,30.912765,30.295561,withdraw
Al-Behera,Housh Eissa,Housh Eissa,30.91770833,30.30043628,full function
Al-Behera,Housh Eissa,Housh Eissa,30.915766,30.297315,withdraw
Al-Behera,Housh Eissa,Alekhlas Mall,30.7009946,30.2682834,withdraw
Al-Behera,Housh Eissa,Housh Iesa City Council,30.915766,30.297315,cash dispenser only
Al-Behera,Housh Eissa,Laqana 0 Team Helmy Afifi Camp,30.912765,30.295561,cash dispenser only
Al-Behera,Housh Eissa,Tamwely Hosh Eissa,30.91038848,30.29732155,withdraw and deposit
Al-Behera,Kafr Al-Dawar,Kafr Al-Dawar,31.13386822,30.13512986,withdraw
Al-Behera,Kafr Al-Dawar,Kafr Al-Dawar,31.135432,30.129149,withdraw
Al-Behera,Kafr Al-Dawar,Kafr Al-Dawar,31.139199,30.121385,withdraw
Al-Behera,Kafr Al-Dawar,Kafr Al-Dawar,31.139143,30.12155,withdraw
Al-Behera,Kafr Al-Dawar,Kafr Al-Dawar,31.130591,30.122248,withdraw
Al-Behera,Kafr Al-Dawar,Alshamela Hospital Kafr Aldawar,31.130591,30.122248,withdraw
Al-Behera,Kafr Al-Dawar,Kafr El-Dawwar City Branch 2,31.04241948,30.46890924,withdraw
Al-Behera,Kafr Al-Dawar,Kafr Aldawar Central Hospital,31.139199,30.121385,cash dispenser only
Al-Behera,Kafr Al-Dawar,Itay Albaroud City Council,31.139199,30.121385,cash dispenser only
Al-Behera,Kafr Al-Dawar,Kafr Aldawar Central Hospital 2,31.139143,30.12155,cash dispenser only
Al-Behera,Kafr Al-Dawar,Kafr Aldawar City Council,31.135432,30.129149,cash dispenser only
Al-Behera,Kafr Al-Dawar, Nasser Agency North Tahrir,30.997523,30.136301,full function
Al-Behera,Koum Hamada,Koum Hamada,30.763683,30.704811,full function
Al-Behera,Koum Hamada,Koum Hamada,30.7637539,30.69974764,full function
Al-Behera,Koum Hamada,Koum Hamada,30.760111,30.694501,withdraw
Al-Behera,Koum Hamada,Koum Hamada,30.699037,30.668604,withdraw
Al-Behera,Koum Hamada,Saft Alinab Local Unit,30.81082688,30.68590817,withdraw
Al-Behera,Koum Hamada,Waqed Village Local Unit,30.69531566,30.73931943,withdraw
Al-Behera,Koum Hamada,Koum Hamada City Council,30.760111,30.694501,cash dispenser only
Al-Behera,Koum Hamada,Nubaria Power Station Khnaiza - Kom Hamada,30.699037,30.668604,cash dispenser only
Al-Behera,Koum Hamada,Express Ahmed Orabi St. Koum hamada,30.763683,30.704811,full function
Al-Behera,Koum Hamada,The local unit of the village of Al-Najila,30.73383215,30.77503088,withdraw and deposit
Al-Behera,Markaz Badr,Markaz Badr,30.571713,30.711668,withdraw
Al-Behera,Markaz Badr,Markaz Badr,30.57747,30.710336,withdraw
Al-Behera,Markaz Badr,Markaz Badr,30.663293,30.566847,withdraw
Al-Behera,Markaz Badr,Markaz Badr,30.57726731,30.71009132,withdraw
Al-Behera,Markaz Badr,badr Altahrir  Educational Administration,30.571713,30.711668,cash dispenser only
Al-Behera,Markaz Badr,Badr Altahrir Health Administration,30.57747,30.710336,cash dispenser only
Al-Behera,Markaz Badr,Alnagah Local unit,30.663293,30.566847,cash dispenser only
Al-Behera,Markaz Badr,Etsalat - Almostaqbal Franchiez -Albehera,30.5761452,30.7090382,cash dispenser only
Al-Behera,Rashid,Rashid,31.40631062,30.4238614,full function
Al-Behera,Rashid,Rashid,31.40487,30.423086,withdraw
Al-Behera,Rashid,Rashid,31.392898,30.414696,withdraw
Al-Behera,Rashid,Rashid,31.288168,30.513992,withdraw
Al-Behera,Rashid,Rashid Main Hospital,31.40949916,30.42373416,withdraw
Al-Behera,Rashid,Rashid Health Unit ,31.39517685,30.42186514,withdraw
Al-Behera,Rashid,Rashid City Council,31.40487,30.423086,cash dispenser only
Al-Behera,Rashid,Dr. Pasha Hospital,31.392898,30.414696,cash dispenser only
Al-Behera,Rashid,Edfina Azharian Institute,31.288168,30.513992,cash dispenser only
Al-Behera,Shabrakhiet,Shabrakhiet,31.024659,30.607641,withdraw
Al-Behera,Shabrakhiet,Shabrakhiet,31.03052168,30.71357679,full function
Al-Behera,Shabrakhiet,Shabrakhiet,31.027977,30.711581,withdraw
Al-Behera,Shabrakhiet,Shabrakhiet,31.027458,30.704211,withdraw
Al-Behera,Shabrakhiet,Shoubrakhit City Council,31.027977,30.711581,cash dispenser only
Al-Behera,Shabrakhiet,Laqana 0 Team Helmy Afifi Camp,31.024659,30.607641,cash dispenser only
Al-Behera,Shabrakhiet,Shabrakhit General Hospital,31.027458,30.704211,cash dispenser only
Al-Behera,Shabrakhiet,The local unit  of Mahalet Fernoy,30.98201643,30.6542905,full function
Al-Behera,Shabrakhiet,The local unit of the village of Laqana,31.02393382,30.60350721,full function
Al-Behera,Shabrakhiet,The local unit of mahalet Beshr,31.05305248,30.69924925,full function
Al-Behera,Shabrakhiet,Tanmiya Shabrakhit,31.02893672,30.71354872,withdraw and deposit
Al-Behera,Wady Elnatroon,Wady El- Natroun,30.39891243,30.36785316,full function
Al-Behera,Wady Elnatroon,Wady Elnatroon,30.395427,30.37151,withdraw
Al-Behera,Wady Elnatroon,Wady Alnatroun Hospital,30.39499563,30.37081886,full function
Al-Behera,Wady Elnatroon,Wadi Alnatrun City Council,30.395427,30.37151,withdraw
Al-Fayoum,Abshaway,Abshaway,29.370735,30.688374,withdraw
Al-Fayoum,Abshaway,Abshaway,29.36074053,30.68325785,full function
Al-Fayoum,Abshaway,Ibshaway Hospital,29.370735,30.688374,withdraw
Al-Fayoum,Abshaway,Abu Kasah Local Unit,29.392268,30.711708,full function
Al-Fayoum,Al Fayoum,Al Fayoum,29.30441208,30.85354564,full function
Al-Fayoum,Al Fayoum,Al Fayoum,29.319696,30.835641,withdraw
Al-Fayoum,Al Fayoum,Al Fayoum,29.308199,30.842229,withdraw
Al-Fayoum,Al Fayoum,Al Fayoum,29.30772267,30.84613982,withdraw
Al-Fayoum,Al Fayoum,Al Fayoum,29.31542035,30.85217852,withdraw
Al-Fayoum,Al Fayoum,Al Fayoum,29.321487,30.837896,withdraw
Al-Fayoum,Al Fayoum,Al Fayoum,29.322145,30.837087,withdraw
Al-Fayoum,Al Fayoum,Al Fayoum,29.308889,30.847499,withdraw
Al-Fayoum,Al Fayoum,Al Fayoum,29.304818,30.84385,withdraw
Al-Fayoum,Al Fayoum,Al Fayoum,29.319011,30.851452,withdraw
Al-Fayoum,Al Fayoum,Orange Tamia Sector,29.47427641,30.9549612,withdraw
Al-Fayoum,Al Fayoum,Fayoum State Council,29.30973607,30.84764079,full function
Al-Fayoum,Al Fayoum,Tanmiah Alfaioum,29.3029927,30.85296321,full function
Al-Fayoum,Al Fayoum,Tanmiah Allahoun,29.20959358,30.9713821,full function
Al-Fayoum,Al Fayoum,Tanmiah Sila,29.3524194,30.96981294,full function
Al-Fayoum,Al Fayoum,Fayoum train station,29.308889,30.847499,full function
Al-Fayoum,Al Fayoum,Fayoum Central 2 - Fayoum sector,29.308199,30.842229,full function
Al-Fayoum,Al Fayoum,Faculty of Arts Fayoum University ,29.322145,30.837087,full function
Al-Fayoum,Al Fayoum,Fayoum University,29.319696,30.835641,full function
Al-Fayoum,Al Fayoum,Fayoum Azhar region,29.319011,30.851452,full function
Al-Fayoum,Al Fayoum,Fayoum Azhar region,29.319011,30.851452,withdraw
Al-Fayoum,Al Fayoum,Fayoum Elementary Court,29.304818,30.84385,withdraw
Al-Fayoum,Al Fayoum,Etisalat Franchise Elkhabeer Fayoum 1,29.309145,30.85801,full function
Al-Fayoum,Al Fayoum,Al Nabawi General Hospital,29.302496,30.838588,full function
Al-Fayoum,Al Fayoum,Fayoum Mills,29.310744,30.85621,full function
Al-Fayoum,Atsa,Atsa,29.23696578,30.79019445,full function
Al-Fayoum,Atsa,Tanmiah Abo Gender,29.24124675,30.67229435,full function
Al-Fayoum,Atsa,Tanmiah Itsa,29.24143653,30.79518521,full function
Al-Fayoum,Atsa,Orange Atsa,29.237697,30.795299,full function
Al-Fayoum,Senouris,Senouris,29.40857519,30.86507307,full function
Al-Fayoum,Senouris,Sanouras Central Hospital,29.4087034,30.8587204,full function
Al-Fayoum,Senouris,local unit anchor,29.41719986,30.81736238,full function
Al-Fayoum,Senouris,Local unit Fidimin,29.38125621,30.77755288,full function
Al-Fayoum,Senouris,Naqalifa Local Unit,29.39694049,30.82468411,full function
Al-Fayoum,Senouris,Tanmiah Sanhour,29.40740388,30.77005311,full function
Al-Fayoum,Senouris,Tanmiah Sanouras,29.41540081,30.86429428,full function
Al-Gharbia,AL Mahala El Kobra,AL Mahala El Kobra,30.96840535,31.16653175,withdraw
Al-Gharbia,AL Mahala El Kobra,AL Mahala El Kobra,30.96841261,31.16653632,withdraw
Al-Gharbia,AL Mahala El Kobra,AL Mahala El Kobra,30.9847804,31.16051063,withdraw
Al-Gharbia,AL Mahala El Kobra,AL Mahala El Kobra,31.09226754,31.14370783,withdraw
Al-Gharbia,AL Mahala El Kobra,AL Mahala El Kobra,30.97440999,31.1700527,withdraw
Al-Gharbia,AL Mahala El Kobra,AL Mahala El Kobra,30.95876951,31.16819124,withdraw
Al-Gharbia,AL Mahala El Kobra,AL Mahala El Kobra,30.96861421,31.16753985,full function
Al-Gharbia,AL Mahala El Kobra,AL Mahala El Kobra,30.97382083,31.16779823,withdraw
Al-Gharbia,AL Mahala El Kobra,AL Mahala El Kobra,30.95132688,31.15007172,withdraw
Al-Gharbia,AL Mahala El Kobra,AL Mahala El Kobra,30.9765346,31.17537475,withdraw
Al-Gharbia,AL Mahala El Kobra,Misr Exchange Almahala,30.97074846,31.16754805,withdraw
Al-Gharbia,AL Mahala El Kobra,We Almahala Local unit,30.9743416,31.1687728,withdraw
Al-Gharbia,AL Mahala El Kobra,We Alshoun Sq. Almahalah,30.96638119,31.16466574,full function
Al-Gharbia,AL Mahala El Kobra,Baladiet Almahalah Club,30.98164511,31.17105489,full function
Al-Gharbia,AL Mahala El Kobra,Derb Hashem Youth Center,30.99968171,31.16443431,full function
Al-Gharbia,AL Mahala El Kobra,The local unit of the village of Mahalla Hassan,31.02731056,31.17532168,full function
Al-Gharbia,AL Mahala El Kobra,Zahran Market Almahala,30.980613,31.173253,full function
Al-Gharbia,AL Mahala El Kobra,The local unit  Demro Village,31.09226754,31.14370783,withdraw
Al-Gharbia,AL Mahala El Kobra,Almahalla Alkobra City Council,30.97382083,31.16779823,withdraw
Al-Gharbia,AL Mahala El Kobra,Almahala Alkobra Agricultural Administration,30.9847804,31.16051063,withdraw
Al-Gharbia,AL Mahala El Kobra,Mahalla Liver Hospital,30.95132688,31.15007172,withdraw
Al-Gharbia,AL Mahala El Kobra,Almahala Alkobra General Hospital,30.9765346,31.17537475,withdraw
Al-Gharbia,AL Mahala El Kobra,Almahala Thany District,30.95876951,31.16819124,withdraw
Al-Gharbia,AL Mahala El Kobra,Almahala Awel District,30.97440999,31.1700527,withdraw
Al-Gharbia,Basyoun,Basyoun,30.93906548,30.81398976,full function
Al-Gharbia,Basyoun,Basyoun,30.94059389,30.82137233,withdraw
Al-Gharbia,Basyoun,Basyoun,30.94038549,30.82041547,withdraw
Al-Gharbia,Basyoun,Tamwely Basioun,30.939667,30.805887,full function
Al-Gharbia,Basyoun,Almahatta Mosque (Basyoun),30.94038549,30.82041547,withdraw
Al-Gharbia,Basyoun,Basion Educational Administration,30.94059389,30.82137233,withdraw
Al-Gharbia,El Santa,El Santa,30.73088075,31.11671518,withdraw
Al-Gharbia,El Santa,El Santa,30.72743801,31.12104115,full function
Al-Gharbia,El Santa,Secondary school for girls in Manshah Al-Santa,30.73088075,31.11671518,withdraw
Al-Gharbia,Kafr El Zayat,Kafr El Zayat,30.82634766,30.81811673,withdraw
Al-Gharbia,Kafr El Zayat,Kafr El Zayat,30.82991578,30.8111978,withdraw
Al-Gharbia,Kafr El Zayat,Kafr El Zayat,30.82385544,30.81166771,withdraw
Al-Gharbia,Kafr El Zayat,Kafr El Zayat,30.82564688,30.81747651,withdraw
Al-Gharbia,Kafr El Zayat,Kafr El Zayat,30.82023673,30.81920027,withdraw
Al-Gharbia,Kafr El Zayat,kafr Alzaiat Health Administration,30.82634766,30.81811673,withdraw
Al-Gharbia,Kafr El Zayat,Kafr Alzaiat Company for Pesticides and Chemicals,30.82991578,30.8111978,withdraw
Al-Gharbia,Kafr El Zayat,Kafr Alzayat General Hospital,30.82023673,30.81920027,withdraw
Al-Gharbia,Kotoor,Kotoor,30.97070599,30.9569079,withdraw
Al-Gharbia,Kotoor,Kotoor,30.9669702,30.95712002,withdraw
Al-Gharbia,Kotoor,Kotoor,30.97712953,30.95726383,withdraw
Al-Gharbia,Kotoor,Kotoor,30.94499339,30.96142241,withdraw
Al-Gharbia,Kotoor,Beltag Local Unit,31.00002271,30.98920359,full function
Al-Gharbia,Kotoor,Zahra Girls Secondary Institute in Damat - Qutour Center,30.94499339,30.96142241,withdraw
Al-Gharbia,Kotoor,Qutour Central Hospital,30.97712953,30.95726383,withdraw
Al-Gharbia,Samanoud,Samanoud,30.96596881,31.24873192,withdraw
Al-Gharbia,Samanoud,Samanoud,30.95934299,31.24424078,full function
Al-Gharbia,Samanoud,Samanoud,30.88240156,31.23455724,withdraw
Al-Gharbia,Samanoud,Samanoud,30.96349337,31.24265613,withdraw
Al-Gharbia,Samanoud,Samanoud,30.84995542,31.23733932,withdraw
Al-Gharbia,Samanoud,Samanoud,30.96170513,31.24650627,withdraw
Al-Gharbia,Samanoud,Babousir local unit,30.88308183,31.23417071,withdraw
Al-Gharbia,Samanoud,Tamwely Samanoud,30.961457,31.244514,full function
Al-Gharbia,Samanoud,Benna Abosir Village - Samanoud gharbia,30.88240156,31.23455724,withdraw
Al-Gharbia,Samanoud,Meet Badr halawa youth center,30.84995542,31.23733932,withdraw
Al-Gharbia,Samanoud,Teachers Syndicate Club in Samannoud,30.96170513,31.24650627,withdraw
Al-Gharbia,Samanoud,Samanoud Health Administration,30.96596881,31.24873192,withdraw
Al-Gharbia,Samanoud,Alshahid Mohamed Mahmoud Khairy Albadrawy  School Samanoud,30.96349337,31.24265613,withdraw
Al-Gharbia,Tanta,Tanta,30.79382197,31.00192247,withdraw
Al-Gharbia,Tanta,Tanta,30.78983568,30.99066344,withdraw
Al-Gharbia,Tanta,Tanta,30.77941184,30.98681621,withdraw
Al-Gharbia,Tanta,Tanta,30.88198283,30.96524633,withdraw
Al-Gharbia,Tanta,Tanta,30.7961301,30.99893496,withdraw
Al-Gharbia,Tanta,Tanta,30.7957389,30.99877817,withdraw
Al-Gharbia,Tanta,Tanta,30.78998351,30.99128595,withdraw
Al-Gharbia,Tanta,Tanta,30.79605565,30.99741897,withdraw
Al-Gharbia,Tanta,Tanta,30.81259891,31.0050727,withdraw
Al-Gharbia,Tanta,Tanta,30.81243086,31.00521908,withdraw
Al-Gharbia,Tanta,Tanta,30.81261632,31.00496598,withdraw
Al-Gharbia,Tanta,Tanta,30.79896145,30.99753061,withdraw
Al-Gharbia,Tanta,Tanta,30.78020191,31.01075553,withdraw
Al-Gharbia,Tanta,Tanta,30.80322412,30.99626516,withdraw
Al-Gharbia,Tanta,Tanta,30.78761068,30.99974312,withdraw
Al-Gharbia,Tanta,Tanta,30.79276148,30.99065859,full function
Al-Gharbia,Tanta,Tanta,30.79266653,30.98911174,withdraw
Al-Gharbia,Tanta,Tanta,30.79787371,31.00133273,withdraw
Al-Gharbia,Tanta,Tanta,30.79225101,31.01074536,full function
Al-Gharbia,Tanta,Tanta,30.79397192,31.00686315,withdraw
Al-Gharbia,Tanta,Tanta,30.8011309,30.99219252,withdraw
Al-Gharbia,Tanta,Tanta,30.783461,30.9895746,withdraw
Al-Gharbia,Tanta,Tanta,30.78571856,30.97899967,withdraw
Al-Gharbia,Tanta,Tanta,30.78109064,30.99600392,withdraw
Al-Gharbia,Tanta,Tanta,30.7855282,30.97898777,withdraw
Al-Gharbia,Tanta,Tanta,30.80423864,31.02322083,full function
Al-Gharbia,Tanta,Tanta,30.78503698,30.99363048,withdraw
Al-Gharbia,Tanta, South Of Delta Electricity distribution Co.2,30.812431,31.005219,withdraw
Al-Gharbia,Tanta, South Of Delta Electricity distribution Co.3,30.812616,31.004966,withdraw
Al-Gharbia,Tanta,Misr Exchange Tanta,30.79322755,30.99561677,withdraw
Al-Gharbia,Tanta,Emaar Delta Mall,30.7968462,31.0020283,withdraw
Al-Gharbia,Tanta,Outlet Mall,30.79802088,31.00799245,full function
Al-Gharbia,Tanta,State Council Western Branch,30.79656463,30.99715466,full function
Al-Gharbia,Tanta,Hyper Casa,30.79273748,30.97869675,full function
Al-Gharbia,Tanta,Health Unit Fisha Selim,30.76841357,30.96798253,full function
Al-Gharbia,Tanta,Tanta train station,30.78243677,30.99414487,full function
Al-Gharbia,Tanta,The local unit of the village of Kafr Kila Al-Bab,30.69038305,31.14258493,full function
Al-Gharbia,Tanta,Tanta Judges Club,30.78503698,30.99363048,full function
Al-Gharbia,Tanta,The local unit Mahalet Menouf -Tanta Sector,30.88198283,30.96524633,withdraw
Al-Gharbia,Tanta,Tanta Electricity Company,30.79896145,30.99753061,withdraw
Al-Gharbia,Tanta,Tanta Alahmadi Alazhar Religious Institute,30.78109064,30.99600392,withdraw
Al-Gharbia,Tanta,"Azhari Institute for Girls, Tanta",30.78983568,30.99066344,withdraw
Al-Gharbia,Tanta,Orouba Mall - Carrefour Tanta,30.80423864,31.02322083,withdraw
Al-Gharbia,Tanta,Faculty of Specific Education Tanta,30.79397192,31.00686315,withdraw
Al-Gharbia,Tanta,Tanta University Administration 2,30.7957389,30.99877817,withdraw
Al-Gharbia,Tanta,West Tanta Educational Administration,30.78998351,30.99128595,withdraw
Al-Gharbia,Tanta,Tanta Azhar Area,30.77941184,30.98681621,withdraw
Al-Gharbia,Tanta,Tanta General Medical Center,30.79382197,31.00192247,withdraw
Al-Gharbia,Tanta,Directorate of Education Tanta,30.783461,30.9895746,withdraw
Al-Gharbia,Tanta,Tanta sales taxes,30.80322412,30.99626516,withdraw
Al-Gharbia,Tanta,Ahmed Maher Tanta,30.786634,30.998089,withdraw
Al-Gharbia,Tanta,Tanta University Administration,30.7961301,30.99893496,withdraw
Al-Gharbia,Tanta,Faculty of Science Tanta University,30.8011309,30.99219252,withdraw
Al-Gharbia,Tanta,The tasks of the armed forces in Tanta 2,30.7855282,30.97898777,withdraw
Al-Gharbia,Tanta,Armed Forces Missions Factory 1,30.78571856,30.97899967,withdraw
Al-Gharbia,Tanta,Middle and West Delta Mills Company,30.78020191,31.01075553,withdraw
Al-Gharbia,Zefta,Zefta,30.71413428,31.24904626,withdraw
Al-Gharbia,Zefta,Zefta,30.71235434,31.24754813,withdraw
Al-Gharbia,Zefta,Zefta,30.80125091,31.21020188,withdraw
Al-Gharbia,Zefta,Zefta,30.79191647,31.16947357,withdraw
Al-Gharbia,Zefta,Zefta,30.69986094,31.25271356,withdraw
Al-Gharbia,Zefta,Zefta,30.71034997,31.25036718,full function
Al-Gharbia,Zefta,Zefta,30.71317231,31.24322923,withdraw
Al-Gharbia,Zefta,Zefta,30.71318044,31.24311345,withdraw
Al-Gharbia,Zefta,The local unit of the village of Shabramles,30.84702629,31.1974472,full function
Al-Gharbia,Zefta,Zefta Social Insurance Qouran Association,30.71235434,31.24754813,withdraw
Al-Gharbia,Zefta,"The local unit, Sonbat",30.80125091,31.21020188,withdraw
Al-Gharbia,Zefta,The local unit shershaba Village -Zefta,30.79191647,31.16947357,full function
Al-Gharbia,Zefta,Zefta City Council 2,30.71318044,31.24311345,withdraw
Al-Gharbia,Zefta,Zefta City Council,30.71317231,31.24322923,withdraw
Al-Menia,Abu Kerkas,Abu Kerkas,27.93478075,30.8193743,withdraw
Al-Menia,Abu Kerkas,Abu Kerkas,27.93200703,30.82132265,full function
Al-Menia,Abu Kerkas,Abu Kerkas,27.92566223,30.81930375,withdraw
Al-Menia,Abu Kerkas,Abu Kerkas,27.93947437,30.82362322,withdraw
Al-Menia,Abu Kerkas,Abu Kerkas,27.92801188,30.81946122,withdraw
Al-Menia,Abu Kerkas,Abu Qurqas Train Station,27.93002254,30.82199295,full function
Al-Menia,Abu Kerkas,Tanmiah Balansoura,27.92024435,30.69838252,full function
Al-Menia,Abu Kerkas,Tanmiah Alfekria,27.93174553,30.83314367,full function
Al-Menia,Abu Kerkas,Abo Qurqas City Council,27.93947437,30.82362322,full function
Al-Menia,Abu Kerkas,Abo Qorqas Educational Administration,27.93478075,30.8193743,full function
Al-Menia,Abu Kerkas,Abu Qurqas Police Station,27.92801188,30.81946122,full function
Al-Menia,Abu Kerkas,Abu Qurqas sugar,27.92566223,30.81930375,full function
Al-Menia,Almenia Algadida,Almenia Algadida,28.0835967,30.80347317,full function
Al-Menia,Almenia Algadida,Almenia Algadida,28.10044298,30.79880427,withdraw
Al-Menia,Almenia Algadida,Almenia Algadida,28.07942301,30.82186121,withdraw
Al-Menia,Almenia Algadida,Almenia Algadida,28.09272564,30.81185239,withdraw
Al-Menia,Bani Mazar,Bani Mazar,28.49495827,30.80570606,withdraw
Al-Menia,Bani Mazar,Bani Mazar,28.50392065,30.80230138,withdraw
Al-Menia,Bani Mazar,Bani Mazar,28.49492709,30.81309101,withdraw
Al-Menia,Bani Mazar,Bani Mazar,28.49746994,30.80446773,withdraw
Al-Menia,Bani Mazar,Tamwely Bani mazar,28.49436977,30.8070144,full function
Al-Menia,Bani Mazar,Bani Mazar Health Insurance,28.50840318,30.79868478,full function
Al-Menia,Bani Mazar,Misr Exchange bani Mazar,28.49916009,30.80536275,withdraw
Al-Menia,Deir Mawas,Deir Mawas,27.64300069,30.85498041,full function
Al-Menia,Deir Mawas,Tamwely Deir Mawas,27.64422897,30.85639037,full function
Al-Menia,Eledwa,Eledwa,28.69848754,30.77306191,withdraw
Al-Menia,Eledwa,Eledwa,28.69295375,30.77668019,withdraw
Al-Menia,Eledwa,Eledwa,28.70119325,30.7724832,withdraw
Al-Menia,Eledwa,Eledwa,28.69529737,30.77263248,withdraw
Al-Menia,Eledwa,Alidwa Police Office,28.6954099,30.77332348,withdraw
Al-Menia,Eledwa,Tanmiah Alshikh Masoud,28.65456863,30.68819088,full function
Al-Menia,Eledwa,Tanmiah Alidwa,28.70218368,30.77195333,full function
Al-Menia,Eledwa,We Alidwa Almenia,28.694477,30.766051,full function
Al-Menia,Eledwa,Aledwa City Council - Almenia,28.69295375,30.77668019,full function
Al-Menia,Eledwa,Industrial school Alidwa,28.70119325,30.7724832,full function
Al-Menia,ElMenia,ElMenia,28.11789004,30.74257455,withdraw
Al-Menia,ElMenia,ElMenia,28.08965662,30.76313344,withdraw
Al-Menia,ElMenia,ElMenia,28.09186301,30.76335211,withdraw
Al-Menia,ElMenia,ElMenia,28.09503576,30.75741676,withdraw
Al-Menia,ElMenia,ElMenia,28.09769322,30.75527144,full function
Al-Menia,ElMenia,ElMenia,28.09632289,30.75950544,withdraw
Al-Menia,ElMenia,ElMenia,28.10039885,30.75354754,full function
Al-Menia,ElMenia,ElMenia,28.10914764,30.7516616,withdraw
Al-Menia,ElMenia,ElMenia,28.11357702,30.74921605,withdraw
Al-Menia,ElMenia,ElMenia,28.09659135,30.75405628,withdraw
Al-Menia,ElMenia,ElMenia,28.12142828,30.74163879,withdraw
Al-Menia,ElMenia,ElMenia,28.09810544,30.75940849,withdraw
Al-Menia,ElMenia,ElMenia,28.09596611,30.76199947,withdraw
Al-Menia,ElMenia,ElMenia,28.09168308,30.7644408,withdraw
Al-Menia,ElMenia,ElMenia,28.10225681,30.75295038,withdraw
Al-Menia,ElMenia,ElMenia,28.09286984,30.76496099,withdraw
Al-Menia,ElMenia,Al Salam Preparatory School for Boys,28.09370559,30.74946632,withdraw
Al-Menia,ElMenia,Bani Mohamed Soltan Local Unit,28.07024581,30.7823452,withdraw
Al-Menia,ElMenia,Algomhoria School,28.0876933,30.74981039,withdraw
Al-Menia,ElMenia,Al-Fashn Train Station,28.82314979,30.90352375,withdraw
Al-Menia,ElMenia,State Council Minya Branch,28.0987095,30.75621145,withdraw and deposit
Al-Menia,ElMenia,Tanmieah Alshikh Fadl,28.48919331,30.84904755,withdraw and deposit
Al-Menia,ElMenia,Tanmiah Delga,27.642655,30.69791786,withdraw and deposit
Al-Menia,ElMenia,Tanmiah Almenia,28.10486134,30.7515505,withdraw and deposit
Al-Menia,ElMenia,Tanmiah Alshorafa,28.11685008,30.76905102,withdraw and deposit
Al-Menia,ElMenia,Higher Institute of Engineering and Technology Industrial Zone,28.020528,30.856247,withdraw and deposit
Al-Menia,ElMenia,Menia train station,28.09659135,30.75405628,withdraw
Al-Menia,ElMenia,Minya Azhar region,28.10225681,30.75295038,withdraw and deposit
Al-Menia,ElMenia,General Authority for Health Insurance - Minya,28.09632289,30.75950544,withdraw and deposit
Al-Menia,ElMenia,  Tahrir Mosque Menia,28.11789004,30.74257455,withdraw and deposit
Al-Menia,ElMenia,Almenia Security Directorate,28.09810544,30.75940849,withdraw and deposit
Al-Menia,ElMenia,General Bureau of the Middle Egypt Electricity Company for Electricity Distribution 2,28.09186301,30.76335211,withdraw and deposit
Al-Menia,ElMenia,Elfoul Minya Mosque,28.09596611,30.76199947,withdraw and deposit
Al-Menia,ElMenia,Oncology Institute in Minya Governorate,28.09168308,30.7644408,withdraw and deposit
Al-Menia,ElMenia,Directorate of Youth and Sports Menia,28.12142828,30.74163879,withdraw and deposit
Al-Menia,ElMenia,Middle Egypt electricity sector,28.10914764,30.7516616,withdraw and deposit
Al-Menia,ElMenia,Damaris Mills,28.11451,30.749812,full function
Al-Menia,ElMenia,Faculty of Computer and Information,28.125224,30.730689,full function
Al-Menia,Maghagha,Maghagha,28.61007677,30.68661399,withdraw
Al-Menia,Maghagha,Maghagha,28.647183,30.845959,withdraw
Al-Menia,Maghagha,Maghagha,28.64827844,30.84513134,withdraw
Al-Menia,Maghagha,Maghagha,28.64779607,30.84427245,withdraw
Al-Menia,Maghagha,Maghagha,28.65523012,30.83132821,withdraw
Al-Menia,Maghagha,Maghagha,28.64973595,30.83933781,withdraw
Al-Menia,Maghagha,Tamwely Maghagha,28.65020127,30.84215794,full function
Al-Menia,Malawi,Malawi,27.73721029,30.84510069,withdraw
Al-Menia,Malawi,Malawi,27.73428402,30.84507229,full function
Al-Menia,Malawi,Malawi,27.73523653,30.84328835,withdraw
Al-Menia,Malawi,Malawi,27.73848158,30.8425392,withdraw
Al-Menia,Malawi,Malawi,27.7309091,30.84015315,withdraw
Al-Menia,Malawi,Malawi,27.73652576,30.84757427,withdraw
Al-Menia,Malawi,Tamwely Malawy,27.73837057,30.84180088,full function
Al-Menia,Malawi,Abshadat Village Local Unit,27.838853,30.736476,full function
Al-Menia,Matai,Matai,28.42174871,30.79030213,withdraw
Al-Menia,Matai,Matai,28.42108579,30.79008335,withdraw
Al-Menia,Matai,Matai,28.42106733,30.7901148,withdraw
Al-Menia,Matai,Matai,28.41989818,30.78846619,full function
Al-Menia,Matai,Misr Exchange matay,28.42056544,30.78749442,withdraw
Al-Menia,Samalut,Samalut,28.388006,30.6716994,withdraw
Al-Menia,Samalut,Samalut,28.31544948,30.7112433,withdraw
Al-Menia,Samalut,Samalut,28.29778967,30.7171691,withdraw
Al-Menia,Samalut,Samalout Health Unit,28.32486602,30.70802829,full function
Al-Menia,Samalut,Samalout Local Unit,28.313739,30.71296808,full function
Al-Menia,Samalut,"One-day surgery hospital, Samalout",28.31058377,30.73588709,full function
Al-Monoufia,Al Sadat,Al Sadat,30.3118976,30.56125688,withdraw
Al-Monoufia,Al Sadat,Al Sadat,30.37081594,30.50226564,withdraw
Al-Monoufia,Al Sadat,Al Sadat,30.36567583,30.54049558,withdraw
Al-Monoufia,Al Sadat,Al Sadat,30.36645445,30.55657861,withdraw
Al-Monoufia,Al Sadat,Al Sadat,30.36672346,30.55062939,withdraw
Al-Monoufia,Al Sadat,Al Sadat,30.3728385,30.49884544,full function
Al-Monoufia,Al Sadat,Al Sadat,30.36866623,30.50251143,full function
Al-Monoufia,Al Sadat,Etisalat Sadat City,30.36319221,30.51076218,withdraw
Al-Monoufia,Al Sadat,Orange Alsadat,30.36365333,30.51077523,full function
Al-Monoufia,Al Sadat,Spinneys Sadat,30.37144469,30.50084472,full function
Al-Monoufia,Al Sadat,Brothers Company for Oils and Soap,30.36567583,30.54049558,full function
Al-Monoufia,Al Sadat,Nile Company for spinning and fine weaving Sadat,30.36645445,30.55657861,full function
Al-Monoufia,Al Sadat,Sadat Police Station,30.37081594,30.50226564,full function
Al-Monoufia,Al Sadat,AlWady Company for Hatchery and Poultry Services,30.36672346,30.55062939,full function
Al-Monoufia,Al Sadat,AlWady Company for Hatchery and Poultry Services,30.36672346,30.55062939,withdraw
Al-Monoufia,Ashmoun,Kafr Sarawa Official Language School,30.24427681,31.08945126,withdraw
Al-Monoufia,Ashmoun,Ashmoun,30.29316659,30.98149914,withdraw
Al-Monoufia,Ashmoun,Ashmoun,30.30353471,30.97332789,withdraw
Al-Monoufia,Ashmoun,Ashmoun,30.30920433,31.0605589,withdraw
Al-Monoufia,Ashmoun,Ashmoun,30.31441356,31.08952502,withdraw
Al-Monoufia,Ashmoun,Ashmoun,30.2965704,30.97980597,withdraw
Al-Monoufia,Ashmoun,Ashmoun,30.27192922,31.02869738,full function
Al-Monoufia,Ashmoun,Ashmoun,30.2720664,31.02867133,withdraw
Al-Monoufia,Ashmoun,Ashmoun,30.29569834,30.98899385,withdraw
Al-Monoufia,Ashmoun,Tamwely Ashmoun,30.29883387,30.98134531,full function
Al-Monoufia,Ashmoun,Ramlet Alangab Village Local Unit,30.36995038,30.93897616,exchange
Al-Monoufia,Ashmoun,The local unit Saqiet Abo Shaara Village,30.31441356,31.08952502,exchange
Al-Monoufia,Ashmoun,The local unit Saqiet Abo Shaara Village,30.31441356,31.08952502,exchange
Al-Monoufia,Ashmoun,Shanshour Village Local Unit,30.3526449,30.99916144,exchange
Al-Monoufia,Ashmoun,Qouras Village Local Unit,30.27815952,31.06289184,full function
Al-Monoufia,Ashmoun,Shama Village local Unit,30.3821745,30.91627263,full function
Al-Monoufia,Ashmoun,Shama Village local Unit,30.3821745,30.91627263,full function
Al-Monoufia,Ashmoun,The local unit Centris (Menoufia),30.30920433,31.0605589,full function
Al-Monoufia,Ashmoun,Ashmoun Health Administration,30.30353471,30.97332789,withdraw
Al-Monoufia,Ashmoun,Arab Medical Center Hospital - Ashmoun,30.2720664,31.02867133,withdraw
Al-Monoufia,Ashmoun,Ashmoun Central Hospital - Menoufia,30.29569834,30.98899385,withdraw
Al-Monoufia,Ashmoun,Ashmoun Police Station,30.29316659,30.98149914,withdraw
Al-Monoufia,Ashmoun,Arab International Hospital in Menoufia,30.27192922,31.02869738,withdraw
Al-Monoufia,Berket El Sabaa,Berket El Sabaa,30.63187962,31.08070321,withdraw
Al-Monoufia,Berket El Sabaa,Berket El Sabaa,30.63563168,31.08998307,withdraw
Al-Monoufia,Berket El Sabaa,Berket El Sabaa,30.68148454,31.02411048,withdraw
Al-Monoufia,Berket El Sabaa,Berket El Sabaa,30.6372058,31.08565809,withdraw
Al-Monoufia,Berket El Sabaa,Janzour Hospital Baraka Sabaa - Menoufia,30.68148454,31.02411048,full function
Al-Monoufia,Berket El Sabaa,Berket Alsabeaa Veterinary Department,30.63187962,31.08070321,withdraw
Al-Monoufia,El Bagour,El Bagour,30.38273894,31.00064843,withdraw
Al-Monoufia,El Bagour,El Bagour,30.43259052,31.03664479,withdraw
Al-Monoufia,El Bagour,El Bagour,30.43281616,31.02891314,withdraw
Al-Monoufia,El Bagour,Saman Village Youth Center,30.35225155,31.03265875,full function
Al-Monoufia,El Bagour,Family Medicine Unit My Great Qulati,30.37120874,31.01098156,full function
Al-Monoufia,El Bagour,Telwana Village Medical Center,30.38273894,31.00064843,full function
Al-Monoufia,El Bagour,Albagour Central Hospital,30.43281616,31.02891314,full function
Al-Monoufia,El Bagour,Central Bagour (Monufia),30.43259052,31.03664479,withdraw
Al-Monoufia,El Bagour,Abshish health unit,30.472469,31.087937,full function
Al-Monoufia,El-Shohadaa,El-Shohadaa,30.59728933,30.90656687,withdraw
Al-Monoufia,El-Shohadaa,El-Shohadaa,30.59102957,30.897757,withdraw
Al-Monoufia,El-Shohadaa,Tamwely Alshohadaa,30.59405097,30.90585703,full function
Al-Monoufia,El-Shohadaa,Alshohadaa City Council,30.59102957,30.897757,full function
Al-Monoufia,El-Shohadaa,Denshway Local Unit,30.598833,30.8559,full function
Al-Monoufia,Menouf,Menouf,30.41426381,30.94450454,withdraw
Al-Monoufia,Menouf,Menouf,30.46331579,30.88752245,withdraw
Al-Monoufia,Menouf,Menouf,30.45609388,30.9310698,withdraw
Al-Monoufia,Menouf,Menouf,30.46727999,30.93389284,withdraw
Al-Monoufia,Menouf,Menouf,30.46657104,30.92734596,withdraw
Al-Monoufia,Menouf,Menouf,30.46395204,30.93600555,withdraw
Al-Monoufia,Menouf,Menouf,30.46324286,30.93558532,withdraw
Al-Monoufia,Menouf,Damlej Youth Center,30.41308001,30.88472717,full function
Al-Monoufia,Menouf,Doberke Primary School,30.51868673,30.88302688,full function
Al-Monoufia,Menouf,Sadud health unit,30.4191318,30.8983915,full function
Al-Monoufia,Menouf,Kafr Al-Sanabesah Primary School for Boys,30.43935205,30.90385215,full function
Al-Monoufia,Menouf,Family Medicine Unit Shabrablola,30.49784522,30.97212704,full function
Al-Monoufia,Menouf,Singerj family medicine unit,30.51409679,30.94724329,full function
Al-Monoufia,Menouf,Menouf general hospital,30.4720714,30.9273746,full function
Al-Monoufia,Menouf,Behwash Schools Complex,30.39943932,30.88810383,full function
Al-Monoufia,Menouf,Abdul Khaleq Rajeh Primary School Al-Azhar Institute,30.254507,31.09067,full function
Al-Monoufia,Menouf,The local unit Barhim,30.46331579,30.88752245,full function
Al-Monoufia,Menouf,Hermel Hospital in Menouf,30.46657104,30.92734596,full function
Al-Monoufia,Menouf,The local unit Fisha Alkoubra -Menouf,30.41426381,30.94450454,full function
Al-Monoufia,Menouf,Menouf Police Station,30.45609388,30.9310698,withdraw
Al-Monoufia,Menouf,Sers Allaian City Council Menoufia,30.44343136,30.96572088,withdraw
Al-Monoufia,Menouf,Zawiet Razin Local Unit,30.413759,30.855562,full function
Al-Monoufia,Menouf,kamshosh Family Medicine Unit,30.416412,30.930803,full function
Al-Monoufia,Quesna,Martyr Adly Lotfi Afifi Primary School,30.52599464,31.09437895,full function
Al-Monoufia,Quesna,Quesna,30.58129391,31.22205861,withdraw
Al-Monoufia,Quesna,Quesna,30.54512995,31.18260863,withdraw
Al-Monoufia,Quesna,Quesna,30.540407,31.17415664,withdraw
Al-Monoufia,Quesna,Quesna,30.54029682,31.17332252,withdraw
Al-Monoufia,Quesna,Quesna,30.54038715,31.17462595,withdraw
Al-Monoufia,Quesna,Quesna,30.54040118,31.17363902,withdraw
Al-Monoufia,Quesna,Quesna,30.54041049,31.17438014,withdraw
Al-Monoufia,Quesna,Quesna,30.54758033,31.13452329,withdraw
Al-Monoufia,Quesna,Quesna,30.55039098,31.17483064,withdraw
Al-Monoufia,Quesna,Quesna,30.54705979,31.13390634,withdraw
Al-Monoufia,Quesna,Quesna,30.54606958,31.18323008,withdraw
Al-Monoufia,Quesna,Quesna,30.54869599,31.14193183,withdraw
Al-Monoufia,Quesna,Mit Berrah community building ,30.54785062,31.21164808,exchange
Al-Monoufia,Quesna,Al Majd Feed Company,30.54543199,31.16948493,full function
Al-Monoufia,Quesna,The local unit Shobra Bakhom,30.58129391,31.22205861,full function
Al-Monoufia,Quesna,Quesna Police Station,30.54758033,31.13452329,withdraw
Al-Monoufia,Quesna,Toshiba Alaraby Quesna 3,30.54038715,31.17462595,withdraw
Al-Monoufia,Quesna,Toshiba Alaraby Quesna 2,30.54040118,31.17363902,withdraw
Al-Monoufia,Quesna,Toshiba Alaraby Quesna 1,30.54029682,31.17332252,withdraw
Al-Monoufia,Quesna,Hyper Alsharqia Menoufia,30.499658,31.150009,full function
Al-Monoufia,Sers Ellian,Sers Ellian,30.45158606,30.96481114,full function
Al-Monoufia,Sers Ellian,Sers Ellian,30.44343136,30.96572088,withdraw
Al-Monoufia,Shebin El Koum,Ibn Alfared Shebin Alkoum islamic Branch 3,30.55424923,31.00715461,full function
Al-Monoufia,Shebin El Koum,Ibn Alfared Shebin Alkoum islamic Branch 2,30.55427898,31.00715758,full function
Al-Monoufia,Shebin El Koum,Ibn Alfared Shebin Alkoum islamic Branch 1,30.55432657,31.00716056,full function
Al-Monoufia,Shebin El Koum,Shebin El Koum,30.55430137,31.00711653,full function
Al-Monoufia,Shebin El Koum,Shebin El Koum,30.57589793,31.01017052,withdraw
Al-Monoufia,Shebin El Koum,Shebin El Koum,30.60082747,31.041307,withdraw
Al-Monoufia,Shebin El Koum,Shebin El Koum,30.54823699,31.01073831,withdraw
Al-Monoufia,Shebin El Koum,Shebin El Koum,30.55880249,31.00722124,withdraw
Al-Monoufia,Shebin El Koum,Shebin El Koum,30.55881173,31.00730114,withdraw
Al-Monoufia,Shebin El Koum,Shebin El Koum,30.5559892,31.01096047,full function
Al-Monoufia,Shebin El Koum,Shebin El Koum,30.55524957,31.01664318,withdraw
Al-Monoufia,Shebin El Koum,Shebin El Koum,30.56182536,31.00292091,withdraw
Al-Monoufia,Shebin El Koum,Shebin El Koum,30.56892296,30.99648812,withdraw
Al-Monoufia,Shebin El Koum,Shebin El Koum,30.54987999,31.01899892,withdraw
Al-Monoufia,Shebin El Koum,Shebin El Koum,30.5499139,31.01380557,withdraw
Al-Monoufia,Shebin El Koum,Shebin El Koum,30.55832456,31.00694918,withdraw
Al-Monoufia,Shebin El Koum,Shebin El Koum,30.55837776,31.00695643,withdraw
Al-Monoufia,Shebin El Koum,Shebin El Koum,30.56400814,31.01229817,withdraw
Al-Monoufia,Shebin El Koum,Shebin El Koum,30.54383033,31.04700979,withdraw
Al-Monoufia,Shebin El Koum,Shebin El Koum,30.6006453,30.96565152,withdraw
Al-Monoufia,Shebin El Koum,Shebin El Koum,30.56190448,31.01630275,withdraw
Al-Monoufia,Shebin El Koum,Shebin El Koum,30.56909577,31.01033423,withdraw
Al-Monoufia,Shebin El Koum,Shebin El Koum,30.56662899,31.02703634,withdraw
Al-Monoufia,Shebin El Koum,Shebin Alkoum Police office,30.55794079,31.00679304,exchange
Al-Monoufia,Shebin El Koum,Mit Khalaf diets Hospital,30.54383033,31.04700979,exchange
Al-Monoufia,Shebin El Koum,Istabari Youth Center,30.49603177,31.05035042,full function
Al-Monoufia,Shebin El Koum,State Council Menoufia Branch,30.55825047,31.00643133,full function
Al-Monoufia,Shebin El Koum,Family Medicine Unit in Mit Masoud,30.52375008,31.04739285,full function
Al-Monoufia,Shebin El Koum,Shebin Alkoum train station,30.56892296,30.99648812,full function
Al-Monoufia,Shebin El Koum,Al Rashid Business Hotel - Monufia,30.55524957,30.55524957,full function
Al-Monoufia,Shebin El Koum,Alashmawi Mall in Batanoun,30.6006453,30.96565152,withdraw
Al-Monoufia,Shebin El Koum,Algomhoria  Sports Club Shebin Alkoum,30.56909577,31.01033423,withdraw
Al-Monoufia,Shebin El Koum,General Office of Menofia Governorate 2,30.55881173,31.00730114,withdraw
Al-Monoufia,Shebin El Koum,Meet Khaqan Sports Club,30.56662899,31.02703634,withdraw
Al-Monoufia,Shebin El Koum,Meet Khaqan Sports Club,30.56662899,31.02703634,withdraw
Al-Monoufia,Shebin El Koum,Martyr Gamal Fayeq sector - Martyr Ali Khater sector,30.55039098,31.17483064,withdraw
Al-Monoufia,Shebin El Koum,Menoufia Security Directorate 2,30.55837776,31.00695643,withdraw
Al-Monoufia,Shebin El Koum,Shebin AlKoum Electricity Department,30.54823699,31.01073831,withdraw
Al-Monoufia,Shebin El Koum,Ophthalmology Hospital Shebin El Kom,30.56400814,31.01229817,withdraw
Al-Monoufia,Shebin El Koum,19011 Pharmacy Shebin Alkoum,30.55806921,31.01022237,full function
Al-Monoufia,Tala,Tala,30.68790674,30.99471761,withdraw
Al-Monoufia,Tala,Tala,30.67769567,30.94437603,withdraw
Al-Monoufia,Tala,Tala,30.68453152,30.95057886,withdraw
Al-Monoufia,Tala,Qashtoukh religious Institute,30.74265782,30.93409388,full function
Al-Monoufia,Tala,Tamwely  Tala,30.67424489,30.93573386,full function
Al-Monoufia,Tala,The health unit in the village of Bitbes,30.6549948,30.9895224,full function
Al-Monoufia,Tala,Tala Central Hospital,30.68453152,30.95057886,full function
Al-Monoufia,Tala,Kafr Alaskaria Helath Unit,30.657662,31.003798,full function
Al-Sharkia,10th of Ramadan,10th of Ramadan,30.245731,31.731391,withdraw
Al-Sharkia,10th of Ramadan,10th of Ramadan,30.29684035,31.74608295,withdraw
Al-Sharkia,10th of Ramadan,10th of Ramadan,30.287812,31.749622,withdraw
Al-Sharkia,10th of Ramadan,10th of Ramadan,30.3203,31.7784,withdraw
Al-Sharkia,10th of Ramadan,10th of Ramadan,30.310257,31.777569,withdraw
Al-Sharkia,10th of Ramadan,10th of Ramadan,30.307605,31.740498,withdraw
Al-Sharkia,10th of Ramadan,10th of Ramadan,30.29700409,31.74647885,withdraw
Al-Sharkia,10th of Ramadan,10th of Ramadan,30.241871,31.726754,full function
Al-Sharkia,10th of Ramadan,Hyper 1 - 10th of Ramadan,30.24187143,31.72675367,withdraw
Al-Sharkia,10th of Ramadan,19011 Pharmacy 10 Of Ramadan,30.29591906,31.77665078,withdraw
Al-Sharkia,10th of Ramadan,Watania Belbis 2,30.29817851,31.48543332,withdraw
Al-Sharkia,10th of Ramadan,10 Ramadan Electricity Company,30.307605,31.740498,withdraw
Al-Sharkia,10th of Ramadan,Delta Pharm Company,30.3203,31.7784,withdraw
Al-Sharkia,10th of Ramadan,Imas Company 0 Ramadan,30.287812,31.749622,withdraw
Al-Sharkia,10th of Ramadan,The National Company for Maize Products,30.245731,31.731391,cash dispenser only
Al-Sharkia,10th of Ramadan,Arafa Mall 10th of Ramadan,30.264861,31.760616,full function
Al-Sharkia,Abu Hammad,Abu Hammad,30.53301507,31.67337145,full function
Al-Sharkia,Abu Hammad,Abu Hammad,30.532803,31.673696,withdraw
Al-Sharkia,Abu Hammad,Abu Hammad,30.532816,31.673637,withdraw
Al-Sharkia,Abu Hammad,Abu Hammad,30.5541,31.733976,withdraw
Al-Sharkia,Abu Hammad,Orange - Abo Hamad,30.5391071,31.6782719,withdraw
Al-Sharkia,Abu Hammad,Abo Hammad city center 2,30.532816,31.673637,withdraw
Al-Sharkia,Abu Hammad,Abo Hammad city center,30.532803,31.673696,withdraw
Al-Sharkia,Abu Hammad,Non-commissioned officers institute of teachers in Abu Hammad,30.5541,31.733976,withdraw
Al-Sharkia,Abu Kbier,Abu Kbier,30.665654,31.691813,withdraw
Al-Sharkia,Abu Kbier,Abu Kbier,30.72257459,31.66312074,withdraw
Al-Sharkia,Abu Kbier,Abu Kbier,30.723742,31.664752,withdraw
Al-Sharkia,Abu Kbier,Abu Kbier,30.719829,31.6592,withdraw
Al-Sharkia,Abu Kbier,Abu Kbier,30.729688,31.669739,withdraw
Al-Sharkia,Abu Kbier,We Abo Kebir,30.724684,31.670823,full function
Al-Sharkia,Abu Kbier,The local unit Alrahmania -sharqia Gov,30.665654,31.691813,withdraw
Al-Sharkia,Abu Kbier,Abo Kebir Hospital,30.719829,31.6592,withdraw
Al-Sharkia,Abu Kbier,Abo Kebir City Council,30.723742,31.664752,withdraw
Al-Sharkia,Abu Kbier,Tal Hwein Youth Center,30.59343073,31.43233596,withdraw and deposit
Al-Sharkia,Al Qurayn,Al Qurayn,30.61071085,31.73549985,withdraw
Al-Sharkia,Al Qurayn,The local unit of the city of Al-Qurain,30.60490349,31.74675778,full function
Al-Sharkia,Al Qurayn,Etsalat Alqorin Almashiakha,30.614061,31.736878,full function
Al-Sharkia,Al Qurayn,Etsalat Alqorin Alqalaa,30.610355,31.743698,full function
Al-Sharkia,Al Qurayn,Tanmiya San Al-Hagar,30.974213,31.871003,withdraw and deposit
Al-Sharkia,Alzaqaziq,Bahnabay local unit,30.653714,31.475413,full function
Al-Sharkia,Alzaqaziq,Shaheen Center Zagazig,30.588654,31.49904,full function
Al-Sharkia,Alzaqaziq,Alsharqia Traffic Department,30.56943,31.508034,full function
Al-Sharkia,Awlad Sakr,Awlad Sakr,30.926071,31.694593,withdraw
Al-Sharkia,Awlad Sakr,Awlad Sakr,30.93099163,31.70383045,full function
Al-Sharkia,Awlad Sakr,Awlad Saqr Insurance,30.926071,31.694593,withdraw
Al-Sharkia,Awlad Sakr,Tanmiah Awlad Saqr,30.934196,31.69812,full function
Al-Sharkia,Bilbeis,Bilbeis,30.42080824,31.56076424,full function
Al-Sharkia,Bilbeis,Bilbeis,30.383747,31.458116,withdraw
Al-Sharkia,Bilbeis,Bilbeis,30.44205,31.471692,withdraw
Al-Sharkia,Bilbeis,Bilbeis,30.435739,31.441696,withdraw
Al-Sharkia,Bilbeis,Orange Belbis,30.41694642,31.56484166,withdraw
Al-Sharkia,Bilbeis,Sun Mall Belbis,30.42056539,31.56406853,withdraw
Al-Sharkia,Bilbeis,Awlad Sief Local Unit,30.4690279,31.56960889,full function
Al-Sharkia,Bilbeis,Sun Mall Belbeis,30.42056539,31.56406853,full function
Al-Sharkia,Bilbeis,Mit Gaber Health Unit,30.45575815,31.4514199,full function
Al-Sharkia,Bilbeis,Zawamel central hospital,30.348433,31.434599,full function
Al-Sharkia,Bilbeis,The local unit Shobra Alnakhla Village,30.44205,31.471692,withdraw
Al-Sharkia,Bilbeis,The local unit Albalashon City,30.435739,31.441696,withdraw
Al-Sharkia,Bilbeis,The local unit Insas Alraml Village,30.383747,31.458116,withdraw
Al-Sharkia,Bilbeis,Command of the Thunderbolt Forces Anshas - Belbeis,30.37576774,31.45051733,withdraw and deposit
Al-Sharkia,Bilbeis,Tanmiya Monsha'et Abu Omar,30.91588251,32.02038014,withdraw and deposit
Al-Sharkia,Bilbeis,Belbeis - Alsharkia Governorate,30.404211,31.581005,full function
Al-Sharkia,Diarb Negm,Diarb Negm,30.747098,31.458398,withdraw
Al-Sharkia,Diarb Negm,Diarb Negm,30.74992346,31.45103559,full function
Al-Sharkia,Diarb Negm,Diarb Negm,30.752565,31.459198,full function
Al-Sharkia,Diarb Negm,Diarb Negm,30.748409,31.463867,withdraw
Al-Sharkia,Diarb Negm,Diarb Negm,30.750211,31.451036,withdraw
Al-Sharkia,Diarb Negm,Diarb Negm,30.78929,31.393775,withdraw
Al-Sharkia,Diarb Negm,Express mart Diarb Negm,30.75369345,31.45979404,withdraw
Al-Sharkia,Diarb Negm,Misr Exchange Diarb Negm,30.75316038,31.45806603,withdraw
Al-Sharkia,Diarb Negm,Shubra Village Youth Center Picture,30.72499207,31.37076875,full function
Al-Sharkia,Diarb Negm,"Sayed Moussa Institute, Elmina Saffour, Saffour (Eastern Derb Negm)",30.78929,31.393775,withdraw
Al-Sharkia,Diarb Negm,Dearb Negm Agricultural Administration,30.747098,31.458398,withdraw
Al-Sharkia,Diarb Negm,Derb Najm Central Hospital,30.750211,31.451036,withdraw
Al-Sharkia,Diarb Negm,Health Insurance Hospital  Derb Negm,30.748409,31.463867,withdraw
Al-Sharkia,El Ebrahimia,El Ebrahimia,30.72229,31.566565,withdraw
Al-Sharkia,El Ebrahimia,We Alibrahemia,30.722168,31.564779,full function
Al-Sharkia,El Ebrahimia,Alibrahemia City Council,30.72229,31.566565,withdraw
Al-Sharkia,El Hosinia,El Hosinia,30.86291373,31.91388731,full function
Al-Sharkia,El Hosinia,El Hosinia,30.855706,31.917424,withdraw
Al-Sharkia,El Hosinia,Orange - Alhusainya,30.86221269,31.91726015,withdraw
Al-Sharkia,El Hosinia,Orange - Alhusainya,30.86221269,31.91726015,withdraw
Al-Sharkia,El Hosinia,Tamwely Alhossania Alsharqia,30.863751,31.914976,full function
Al-Sharkia,El Hosinia,Tamwely Alhossania Alsharqia,30.863751,31.914976,full function
Al-Sharkia,El Hosinia,Husseinieh City Council,30.855706,31.917424,withdraw
Al-Sharkia,El Hosinia,We Alhusainia,30.86191643,31.9147469,full function
Al-Sharkia,El Qanaiat,El Qanaiat,30.615046,31.459644,withdraw
Al-Sharkia,El Qanaiat,Alqenayat City Council - Dyarb Negm,30.615046,31.459644,withdraw
Al-Sharkia,El Qanaiat,Tanmiya Al Qnaiyat,30.6147243,31.45917455,withdraw and deposit
Al-Sharkia,El Salihia,El Salihia,30.77835504,31.98975518,full function
Al-Sharkia,Faqous,Faqous,30.72747247,31.79258791,withdraw
Al-Sharkia,Faqous,Faqous,30.719261,31.796052,withdraw
Al-Sharkia,Faqous,19011 Pharmacy Faqous,30.58722586,31.50351674,withdraw
Al-Sharkia,Faqous,Etisalat - Franchise Al Momen - Faqous,30.73009881,31.79252642,full function
Al-Sharkia,Faqous,We Faqous 1,30.723218,31.793586,full function
Al-Sharkia,Faqous,Faqous Health Insurance Hospital,30.719261,31.796052,withdraw
Al-Sharkia,Faqous,Tanmiya Faqous,30.73379416,31.80105371,withdraw and deposit
Al-Sharkia,Hahya,Hahya,30.667484,31.587791,withdraw
Al-Sharkia,Hahya,Hahya,30.676057,31.596249,withdraw
Al-Sharkia,Hahya,Hahya,30.67211941,31.59191729,full function
Al-Sharkia,Hahya,Hehya District Court,30.667484,31.587791,withdraw
Al-Sharkia,Hahya,Hehia Central Hospital,30.676057,31.596249,withdraw
Al-Sharkia,Hahya,The local unit in the village of Toukh,30.69118362,31.65700641,withdraw and deposit
Al-Sharkia,Hahya,Tanmiah Hehia,30.673612,31.5926,full function
Al-Sharkia,Kafr Sakr,Kafr Sakr,30.793268,31.631008,withdraw
Al-Sharkia,Kafr Sakr,Kafr Sakr,30.79331171,31.62905049,withdraw
Al-Sharkia,Kafr Sakr,Kafr Sakr,30.798202,31.628144,withdraw
Al-Sharkia,Kafr Sakr,Tamwely Kafr Saqr,30.79233528,31.63064331,full function
Al-Sharkia,Kafr Sakr,Orange - Kafr Saqr,30.79559379,31.62771954,withdraw
Al-Sharkia,Kafr Sakr,Kafr Saqr Hospital,30.798202,31.628144,withdraw
Al-Sharkia,Mashtoul El Souk,Mashtoul El Souk,30.36827817,31.38107115,full function
Al-Sharkia,Mashtoul El Souk,Tamwely Mashtoul Alsouq,30.3590524,31.38238838,full function
Al-Sharkia,Mashtoul El Souk,Tamwely Mashtoul Alsouq,30.3590524,31.38238838,full function
Al-Sharkia,Minia AL Kamh,Minia AL Kamh,30.517873,31.343638,withdraw
Al-Sharkia,Minia AL Kamh,Minia AL Kamh,30.472337,31.464796,withdraw
Al-Sharkia,Minia AL Kamh,Minia AL Kamh,30.489735,31.289299,withdraw
Al-Sharkia,Minia AL Kamh,Minia AL Kamh,30.486161,31.418537,withdraw
Al-Sharkia,Minia AL Kamh,Minia AL Kamh,30.51950359,31.34718,withdraw
Al-Sharkia,Minia AL Kamh,Alazezia Insurance,30.4901098,31.2954427,withdraw
Al-Sharkia,Minia AL Kamh,Menia Alqameh Educational Administration,30.51787284,31.34363799,withdraw
Al-Sharkia,Minia AL Kamh,Shalshalamoun Village Local Unit Menia Alqameh,30.4909653,31.37492923,withdraw
Al-Sharkia,Minia AL Kamh,Tamwily Minya Al-Qamh,30.51878462,31.3512348,full function
Al-Sharkia,Minia AL Kamh,Alsaadien Central Hospital,30.452706,31.37026,full function
Al-Sharkia,Minia AL Kamh,frinds ADSL,30.517965,31.34496,full function
Al-Sharkia,Minia AL Kamh,We Menia Alqameh Handaset Alrai,30.520032,31.343317,full function
Al-Sharkia,Minia AL Kamh,Alnaamnah Health Unit,30.464554,31.388603,full function
Al-Sharkia,Minia AL Kamh,Talbanah Elementary School,30.48267317,31.44394922,withdraw
Al-Sharkia,Minia AL Kamh,Azizia local unit - Menia Alqamh,30.489735,31.289299,withdraw
Al-Sharkia,Minia AL Kamh,The health unit in Bisha Amer - Menia Alqamh - Sharqia Governorate,30.472337,31.464796,withdraw
Al-Sharkia,Minia AL Kamh,Bani Hilal School - Sharqia,30.486161,31.418537,withdraw
Al-Sharkia,Zagazig,Zagazig,30.58729516,31.50355567,full function
Al-Sharkia,Zagazig,Zagazig,30.58379616,31.49639321,withdraw
Al-Sharkia,Zagazig,Zagazig,30.587542,31.482999,withdraw
Al-Sharkia,Zagazig,Zagazig,30.58063,31.498582,withdraw
Al-Sharkia,Zagazig,Zagazig,30.586102,31.482635,full function
Al-Sharkia,Zagazig,Zagazig,30.581719,31.518266,withdraw
Al-Sharkia,Zagazig,Zagazig,30.588252,31.499029,withdraw
Al-Sharkia,Zagazig,Zagazig,30.585769,31.482968,withdraw
Al-Sharkia,Zagazig,Zagazig,30.585947,31.482905,withdraw
Al-Sharkia,Zagazig,Zagazig,30.584644,31.486875,withdraw
Al-Sharkia,Zagazig,Zagazig,30.58356,31.520278,withdraw
Al-Sharkia,Zagazig,Zagazig,30.587932,31.472672,withdraw
Al-Sharkia,Zagazig,Zagazig,30.586404,31.482259,withdraw
Al-Sharkia,Zagazig,Zagazig,30.595333,31.510692,withdraw
Al-Sharkia,Zagazig,Zagazig,30.587282,31.482888,withdraw
Al-Sharkia,Zagazig,Zagazig,30.588008,31.505284,withdraw
Al-Sharkia,Zagazig,Zagazig,30.582097,31.500852,withdraw
Al-Sharkia,Zagazig,Zagazig,30.589783,31.509453,withdraw
Al-Sharkia,Zagazig,Zagazig,30.583165,31.485822,withdraw
Al-Sharkia,Zagazig,Zagazig,30.58628,31.498311,withdraw
Al-Sharkia,Zagazig,Zagazig,30.586928,31.491397,withdraw
Al-Sharkia,Zagazig,Zagazig,30.584458,31.488032,withdraw
Al-Sharkia,Zagazig,Zagazig,30.589782,31.476983,withdraw
Al-Sharkia,Zagazig,Zagazig,30.589586,31.496186,withdraw
Al-Sharkia,Zagazig,Zagazig,30.586473,31.496551,withdraw
Al-Sharkia,Zagazig,Zagazig,30.579213,31.515986,withdraw
Al-Sharkia,Zagazig,Zagazig,30.5879569,31.47966358,full function
Al-Sharkia,Zagazig,Alam Market Zaqaziq,30.58597609,31.50376518,withdraw
Al-Sharkia,Zagazig,Alam Market Zaqaziq,30.58597609,31.50376518,withdraw
Al-Sharkia,Zagazig,Orange Zaqaziq,30.58981313,31.51085822,withdraw
Al-Sharkia,Zagazig,Carrefour Alzaqaziq,30.60608833,31.47978219,full function
Al-Sharkia,Zagazig,Shobak Basta Local Unit,30.57803306,31.53948402,withdraw
Al-Sharkia,Zagazig,Zaqaziq train station,30.58209719,31.50085227,withdraw
Al-Sharkia,Zagazig,Ranin Zagazig ,30.59003795,31.49021482,full function
Al-Sharkia,Zagazig,State Council Sharkia Branch,30.57416718,31.50165442,full function
Al-Sharkia,Zagazig,Etsalat Zagazig Governorate ,30.590702,31.500801,full function
Al-Sharkia,Zagazig,Abu Al Saud Hypermarket in Zaqaziq,30.579213,31.515986,withdraw
Al-Sharkia,Zagazig,Sidnawy Hospital - Zaqaziq University,30.589782,31.476983,withdraw
Al-Sharkia,Zagazig,Zaqaziq University Hospital  Central Administration for University Hospitals ,30.584458,31.488032,withdraw
Al-Sharkia,Zagazig,University post building - Zaqaziq University,30.587282,31.482888,withdraw
Al-Sharkia,Zagazig,Faculty of Human Medicine - Zaqaziq University,30.584644,31.486875,withdraw
Al-Sharkia,Zagazig,Faculty of Technology and Development 2  Zaqaziq University,30.585769,31.482968,withdraw
Al-Sharkia,Zagazig,The clinical building  Zagazig University,30.587542,31.482999,withdraw
Al-Sharkia,Zagazig,Faculty of Engineering - Zaqaziq University,30.586404,31.482259,withdraw
Al-Sharkia,Zagazig,Faculty of Education - Zaqaziq University,30.595333,31.510692,full function
Al-Sharkia,Zagazig,Faculty of Veterinary Medicine - Zaqaziq University,30.58356,31.520278,withdraw
Al-Sharkia,Zagazig,Faculty of Technology and Development   Zaqaziq University,30.585947,31.482905,withdraw
Al-Sharkia,Zagazig,Faculty of Arabic Language - Al-Azhar University Branch - Zaqaziq,30.587932,31.472672,withdraw
Al-Sharkia,Zagazig,Agriculture Mosque in Zagazig,30.586473,31.496551,withdraw
Al-Sharkia,Zagazig,Abo Ahmed supermarket Alqawmia,30.588252,31.499029,withdraw
Al-Sharkia,Zagazig,Abo Ahmed supermarket,30.581719,31.518266,withdraw
Al-Sharkia,Zagazig,Almabarah Hospital in Zaqaziq - Alshariqa Health Insurance Authority,30.586928,31.491397,withdraw
Al-Sharkia,Zagazig,Zaqaziq Court of First Instance,30.589783,31.509453,withdraw
Al-Sharkia,Zagazig,Azhar Zaqaziq Azhar Area Sharqia,30.58063,31.498582,withdraw
Al-Sharkia,Zagazig,Directorate of Veterinary Medicine Zaqaziq,30.58628,31.498311,withdraw
Al-Sharkia,Zagazig,Zaqaziq City Council,30.588008,31.505284,withdraw
Al-Sharkia,Zagazig,Directorate of Construction  Housing and Utilities in Zaqaziq,30.583165,31.485822,withdraw
Al-Sharkia,Zagazig,Zagazig University,30.586102,31.482635,withdraw
Al-Sharkia,Zagazig,Alsalam Hospital - Zaqaziq,30.589586,31.496186,withdraw
Al-Sharkia,Zagazig,Tal Hwein Youth Center,30.59343073,31.43233596,withdraw and deposit
Al-Wadi Al-Jadid,Al Dakhla,Al Dakhla,25.4941998,28.97934703,withdraw
Al-Wadi Al-Jadid,Al Dakhla,Al Dakhla,25.531464,28.972683,withdraw
Al-Wadi Al-Jadid,Al Dakhla,Dakhla Educational Palace Sector,25.492108,28.985639,withdraw
Al-Wadi Al-Jadid,Al Dakhla,Mout -Aldhakhla Health Administration,25.531464,28.972683,withdraw
Al-Wadi Al-Jadid,Al Dakhla,Tanmiya Al-Dakhla,25.49555315,28.98301892,withdraw and deposit
Al-Wadi Al-Jadid,Al Farfarah,Al Farfarah,27.06740664,27.97224309,full function
Al-Wadi Al-Jadid,Alkharga,Kharga branch 4,25.44804868,30.54237848,full function
Al-Wadi Al-Jadid,Alkharga,Alkharga,25.44799722,30.54227429,withdraw
Al-Wadi Al-Jadid,Alkharga,Alkharga,25.450277,30.543554,withdraw
Al-Wadi Al-Jadid,Alkharga,Alkharga,25.457344,30.546207,withdraw
Al-Wadi Al-Jadid,Alkharga,Alkharga,25.452962,30.541047,withdraw
Al-Wadi Al-Jadid,Alkharga,Alkharga,25.458679,30.54744,withdraw
Al-Wadi Al-Jadid,Alkharga,Alkharga,25.442906,30.549972,withdraw
Al-Wadi Al-Jadid,Alkharga,Security Directorate Alwadi Algadid,25.458679,30.54744,withdraw
Al-Wadi Al-Jadid,Alkharga,Kharga City Council,25.457344,30.546207,withdraw
Al-Wadi Al-Jadid,Alkharga,Kharga Hospital,25.442906,30.549972,withdraw
Al-Wadi Al-Jadid,Alkharga,General Office of Alwadi Algadid,25.450277,30.543554,withdraw
Al-Wadi Al-Jadid,Alkharga,Directorate of Education in Alwadi Algadid,25.452962,30.541047,withdraw
Al-Wadi Al-Jadid,Alkharga,Tamwily Alkharga,25.44389,30.543196,full function
Al-Wadi Al-Jadid,Balat,Balat,25.564824,29.264278,withdraw
Al-Wadi Al-Jadid,Balat,Balat,25.56299485,29.26535559,withdraw
Al-Wadi Al-Jadid,Balat,The local unit Balat City -Aldakhla,25.564824,29.264278,withdraw
Al-Wadi Al-Jadid,Balat,tebida Village local Unit,25.511206,29.340503,full function
Al-Wadi Al-Jadid,Paris,Paris,24.67413843,30.61009308,withdraw
Al-Wadi Al-Jadid,Paris,Paris,24.674101,30.609735,withdraw
Al-Wadi Al-Jadid,Paris,Paris City Council,24.674101,30.609735,withdraw
Alexandria,Abis,Abis,31.173516,29.983599,withdraw
Alexandria,Abis,Tianbei Limited Company,31.204438,30.003317,full function
Alexandria,Abis,Abis Educational Administration,31.173516,29.983599,cash dispenser only
Alexandria,Abu Kir,Abu Kir,31.31246,30.067892,withdraw
Alexandria,Abu Kir,Abu Kir,31.311899,30.066944,withdraw
Alexandria,Abu Kir,Abu Kir,31.32054124,30.06343638,withdraw
Alexandria,Abu Kir,Abu Kir,31.269797,30.095935,withdraw
Alexandria,Abu Kir,Abu Kir,31.316492,30.059624,withdraw
Alexandria,Abu Kir,Abu Kir,31.280667,30.014712,withdraw
Alexandria,Abu Kir,Abu Kir,31.305476,30.058839,withdraw
Alexandria,Abu Kir,Fathallah Abu Qir,31.30442657,30.06583038,full function
Alexandria,Abu Kir,Fathallah Abu Qir,31.30442657,30.06583038,full function
Alexandria,Abu Kir,Naval Academy Abo Qir,31.31246,30.067892,cash dispenser only
Alexandria,Abu Kir,Aboqir  Engineering Industries Company,31.316492,30.059624,cash dispenser only
Alexandria,Abu Kir,Gomla Market Company - Almontazah Alexandria,31.280667,30.014712,cash dispenser only
Alexandria,Abu Kir,Naval Academy Abo Qir,31.31246,30.067892,cash dispenser only
Alexandria,Abu Kir,Aboqir  Engineering Industries Company,31.316492,30.059624,cash dispenser only
Alexandria,Abu Kir,Gomla Market Company - Almontazah Alexandria,31.280667,30.014712,cash dispenser only
Alexandria,Abu Kir,College of Physical Education Abo Qir,31.305476,30.058839,full function
Alexandria,Abu Kir,Naval College Abo Qir - Alexandria,31.311899,30.066944,cash dispenser only
Alexandria,Al Azarita,Al Azarita,31.20744,29.920732,withdraw
Alexandria,Al Azarita,Al Azarita,31.20333,29.90711,withdraw
Alexandria,Al Azarita,Alex University Stadium (Alexandria),31.20744,29.920732,cash dispenser only
Alexandria,Al Azarita,Central Alexandria district - Azarita,31.20333,29.90711,cash dispenser only
Alexandria,Al Ibrahimeya,Al Ibrahimeya,31.20783111,29.92912785,full function
Alexandria,Al Ibrahimeya,Mobil Gas Station Alibrahemia,31.20865258,29.93052531,withdraw
Alexandria,Al Nozha,Al Nozha,31.205287,29.966553,full function
Alexandria,Al Nozha,Al Nozha,31.197593,29.945226,withdraw
Alexandria,Al-Ameriya,Al-Ameriya,30.995417,29.795513,withdraw
Alexandria,Al-Ameriya,Al-Ameriya,31.01276184,29.80066323,withdraw
Alexandria,Al-Ameriya,Al-Ameriya,31.030502,29.785597,withdraw
Alexandria,Al-Ameriya,Al-Ameriya,31.002804,29.804831,withdraw
Alexandria,Al-Ameriya,Al-Ameriya,31.035365,29.778024,withdraw
Alexandria,Al-Ameriya,Al-Ameriya,31.038805,29.778207,withdraw
Alexandria,Al-Ameriya,Al-Ameriya,30.99868,29.853873,withdraw
Alexandria,Al-Ameriya,Al-Ameriya,31.050838,29.798547,withdraw
Alexandria,Al-Ameriya,Al-Ameriya,31.212611,29.928514,withdraw
Alexandria,Al-Ameriya,Al-Ameriya,31.02461257,29.77520658,full function
Alexandria,Al-Ameriya,Al-Ameriya,31.03062974,29.76898736,withdraw
Alexandria,Al-Ameriya,Al-Ameriya,30.994985,29.810351,withdraw
Alexandria,Al-Ameriya,Watania Merghem,30.98611447,29.77750609,full function
Alexandria,Al-Ameriya,On The Run Alaamria,31.030502,29.785597,cash dispenser only
Alexandria,Al-Ameriya,Egyptian warehouse company,30.99868,29.853873,cash dispenser only
Alexandria,Al-Ameriya,Misr Alaamiria Company for Spinning and Weaving in Alexandria 1,31.212611,29.928514,cash dispenser only
Alexandria,Al-Ameriya,Alaamiria military region,30.994985,29.810351,cash dispenser only
Alexandria,Al-Ameriya,Egyptian warehouse company,30.99868,29.853873,cash dispenser only
Alexandria,Al-Ameriya,Alaamiria Educational Administration,31.002804,29.804831,cash dispenser only
Alexandria,Al-Ameriya,Gomla Market Company - Rose Garden - Merghem,31.050838,29.798547,cash dispenser only
Alexandria,Al-Ameriya,The Arab Company for Gelatin Products,31.038805,29.778207,cash dispenser only
Alexandria,Alasafra,Alasafra,31.269802,30.005577,withdraw
Alexandria,Alasafra,Alasafra,31.274764,30.005369,withdraw
Alexandria,Alasafra,Tanmiah Alasafra Qebly,31.26586658,30.00230829,full function
Alexandria,Alasafra,We 45 St. -Alexandria,31.268117,29.999928,full function
Alexandria,Alasafra,Aman Almontazah,31.269802,30.005577,cash dispenser only
Alexandria,Alasafra,We Alasafra,31.270674,30.005719,full function
Alexandria,Alasafra,We Alasafra,31.270674,30.005719,full function
Alexandria,Alasafra,The Islamic Envoy City in Alexandria,31.274764,30.005369,cash dispenser only
Alexandria,Alhadara,Alhadara,31.202817,29.919488,withdraw
Alexandria,Alhadara,Alhadara,31.202522,29.920365,withdraw
Alexandria,Alhadara,Alhadara,31.20321291,29.93672498,withdraw
Alexandria,Alhadara,Alagzakhan Pharamcy D. Ahmed Faied - Wabour Almaiah,31.198425,29.918139,full function
Alexandria,Alhadara,We Alhadarah Alexandria,31.201354,29.933821,full function
Alexandria,Alhadara,University Students Hospital in Alexandria,31.202522,29.920365,cash dispenser only
Alexandria,Alhadara,Nabawiya Musa Experimental Secondary School,31.202817,29.919488,cash dispenser only
Alexandria,Al-Montaza,Al-Montaza,31.302693,30.059734,withdraw
Alexandria,Al-Montaza,Al-Montaza,31.256355,29.992169,withdraw
Alexandria,Al-Montaza,Al-Montaza,31.27891899,30.02352703,withdraw
Alexandria,Al-Montaza,Al-Montaza,31.288461,30.017881,withdraw
Alexandria,Al-Montaza,Super Express Khorshid,31.20529165,30.02053859,withdraw
Alexandria,Al-Montaza,Fathalla gardenia,31.24616219,29.991567,withdraw
Alexandria,Al-Montaza,Carrefour -Royal Plaza Mall,31.28281636,30.02355952,full function
Alexandria,Al-Montaza,Tanmiah Almaraghy,31.20866416,30.02061591,full function
Alexandria,Al-Montaza,Aman Alsiouf,31.24098658,29.99595906,full function
Alexandria,Al-Montaza,Gomla Market Miami,31.27067819,29.99780476,full function
Alexandria,Al-Montaza,Aman Toson,31.30043635,30.06057133,full function
Alexandria,Al-Montaza,Almontazah District Alexandria,31.256355,29.992169,cash dispenser only
Alexandria,Al-Montaza, Almontazah Educational Administration,31.302693,30.059734,cash dispenser only
Alexandria,Al-Montaza,Helnan Palestine,31.288461,30.017881,cash dispenser only
Alexandria,Al-Qabari,Al-Qabari,31.18446061,29.88724765,full function
Alexandria,Al-Qabari,Al-Qabari,31.170223,29.881387,withdraw
Alexandria,Al-Qabari,Elqabbari General Hospital,31.170223,29.881387,cash dispenser only
Alexandria,Alraml,Alraml,31.23424895,29.96224375,withdraw
Alexandria,Alraml,Drinking water station 2 - Al-Awayed - Al-Seyouf - Alexandria,31.22281326,29.99015722,full function
Alexandria,Alraml,Tanmiah Ezbet Hegazy,31.220319,29.965227,full function
Alexandria,Bab Sharq,Bab Sharq,31.200108,29.922012,withdraw
Alexandria,Bab Sharq,Aman Al-Hadra,31.20120876,29.9324492,full function
Alexandria,Bab Sharq,"Joomla Market Company - Wabour Al Mayah 2, Alexandria",31.200108,29.922012,cash dispenser only
Alexandria,Bab Sharq,"Joomla Market Company - Wabour Al Mayah 2, Alexandria",31.200108,29.922012,cash dispenser only
Alexandria,Borg Al Arab,Borg Al Arab,30.88285501,29.57748186,full function
Alexandria,Borg Al Arab,Borg Al Arab,30.900834,29.544189,withdraw
Alexandria,Borg Al Arab,Borg Al Arab,30.890269,29.584773,withdraw
Alexandria,Borg Al Arab,Borg Al Arab,30.852997,29.603637,withdraw
Alexandria,Borg Al Arab,Borg Al Arab,30.86633208,29.57656735,full function
Alexandria,Borg Al Arab,Borg Al Arab,30.866498,29.575058,withdraw
Alexandria,Borg Al Arab,Borg Al Arab,30.938137,29.691282,full function
Alexandria,Borg Al Arab,Borg Al Arab,31.006582,29.637104,full function
Alexandria,Borg Al Arab,Watania Burj Al Arab,30.93271768,29.63997033,full function
Alexandria,Borg Al Arab,Franchise Borg Alarab,30.88462759,29.57352043,full function
Alexandria,Borg Al Arab,The device of the old city Borg Alarab,30.900834,29.544189,cash dispenser only
Alexandria,Borg Al Arab,Rubex Plastic Company - Borg Alarab,30.852997,29.603637,cash dispenser only
Alexandria,Borg Al Arab,Mubarak City for Scientific Research,30.866498,29.575058,cash dispenser only
Alexandria,Borg Al Arab,Gomla Market Company - Borg Alarab,30.890269,29.584773,cash dispenser only
Alexandria,Borg Al Arab,Orouba Mall,31.006582,29.637104,full function
Alexandria,Borg Al Arab,Burj Alarab airport arrival,30.938137,29.691282,full function
Alexandria,Borg Al Arab,Bahig Village Local Unit,30.923109,29.593144,full function
Alexandria,Borg Al Arab,Gomla market K 40,30.978234,29.57327,full function
Alexandria,Camp Shizar,Camp Shizar,31.21539805,29.9224125,full function
Alexandria,Camp Shizar,Camp Shizar,31.215904,29.925323,withdraw
Alexandria,Camp Shizar,Abbas Alaasar Primary School,31.215904,29.925323,cash dispenser only
Alexandria,Dekhela,Dekhela,31.13503247,29.82174629,withdraw
Alexandria,Dekhela,Dekhela,31.135163,29.821777,full function
Alexandria,Dekhela,Agamy Star Mall,31.11041151,29.78770798,withdraw
Alexandria,Dekhela,Tanmiah Albitash,31.12107616,29.78680833,full function
Alexandria,Dekhela,Express Aldekhila,31.135163,29.821777,full function
Alexandria,El Gomrok,El Gomrok,31.20186626,29.88275782,full function
Alexandria,El Gomrok,El Gomrok,31.201048,29.880647,full function
Alexandria,El Gomrok,El Gomrok,31.20636254,29.8823516,full function
Alexandria,El Gomrok,El Gomrok,31.191605,29.884104,withdraw
Alexandria,El Gomrok,El Gomrok,31.20863,29.882421,withdraw
Alexandria,El Gomrok,Building tenth Alexandria Customs,31.191605,29.884104,cash dispenser only
Alexandria,El Gomrok,The naval base of Ras Elteen,31.201048,29.880647,full function
Alexandria,El Gomrok,Alexandria sea port branch 2,31.18584955,29.87997356,withdraw and deposit
Alexandria,El Gomrok,Alexandria sea port branch 1,31.18568774,29.88000211,withdraw and deposit
Alexandria,El-Agami,The union of the occupants of the green village of Al-Rawda in Al-Ajami,31.09945214,29.74715312,withdraw
Alexandria,El-Agami,El-Agami,31.10462485,29.7660773,full function
Alexandria,El-Agami,El-Agami,31.098494,29.771319,withdraw
Alexandria,El-Agami,El-Agami,31.116256,29.796778,withdraw
Alexandria,El-Agami,El-Agami,31.106806,29.783036,full function
Alexandria,El-Agami,El-Agami,31.100639,29.773207,full function
Alexandria,El-Agami,El-Agami,31.10588,29.764859,withdraw
Alexandria,El-Agami,El-Agami,31.127187,29.781353,withdraw
Alexandria,El-Agami,El-Agami,31.11808371,29.79076231,full function
Alexandria,El-Agami,El-Agami,31.125506,29.810535,withdraw
Alexandria,El-Agami,El-Agami,31.111734,29.791424,withdraw
Alexandria,El-Agami,El-Agami,31.108969,29.785515,withdraw
Alexandria,El-Agami,El-Agami,31.079921,29.737225,full function
Alexandria,El-Agami,Carrefour - Alagamy,31.1001094,29.77236365,withdraw
Alexandria,El-Agami,Carrefour - City Lite Mall,31.24583989,29.99451309,full function
Alexandria,El-Agami,Raneen Al-Ajami,31.08628512,29.74738974,full function
Alexandria,El-Agami,Mini Franchise k 21,31.079921,29.737225,full function
Alexandria,El-Agami,Super Express Hanovil Agamy,31.100639,29.773207,full function
Alexandria,El-Agami,Super Express Aldaraisa Alagamy,31.106806,29.783036,full function
Alexandria,El-Agami,Agamy Mobil station Contra Steel Company,31.125506,29.810535,cash dispenser only
Alexandria,El-Agami,Abbas Helmy Psychiatry Hospital Algamy,31.111734,29.791424,cash dispenser only
Alexandria,El-Agami,Abbas Helmy Psychiatry Hospital Algamy,31.111734,29.791424,cash dispenser only
Alexandria,El-Agami,Alagamy District,31.116256,29.796778,cash dispenser only
Alexandria,El-Agami,Fathalla Hanoville Markets,31.098494,29.771319,cash dispenser only
Alexandria,El-Atareen,El-Atareen,31.188533,29.902593,withdraw
Alexandria,El-Atareen,El-Atareen,31.202529,29.903236,withdraw
Alexandria,El-Atareen,El-Atareen,31.20563986,29.90510473,full function
Alexandria,El-Atareen,El-Atareen,31.19684229,29.89851058,withdraw
Alexandria,El-Atareen,El-Atareen,31.183138,29.878009,withdraw
Alexandria,El-Atareen,El-Atareen,31.215786,29.939907,withdraw
Alexandria,El-Atareen,El-Atareen,31.200486,29.896771,full function
Alexandria,El-Atareen,Alex Tour,31.19975631,29.90168909,full function
Alexandria,El-Atareen,State Council Alexandria Branch 2,31.2014156,29.90901294,full function
Alexandria,El-Atareen,Super Express Alattarin,31.188533,29.902593,cash dispenser only
Alexandria,El-Atareen,Sun Mall Alraml,31.202529,29.903236,cash dispenser only
Alexandria,El-Atareen,Windsor Alexandria,31.200486,29.896771,full function
Alexandria,El-Atareen,Talaat Harb Alexandria Branch,31.196442,29.900358,full function
Alexandria,El-Atareen,Samsung Alexandria,31.199607,29.904713,full function
Alexandria,El-Mamoura,El-Mamoura,31.28686809,30.03134411,full function
Alexandria,El-Mamoura,El-Mamoura,31.28775,30.017467,withdraw
Alexandria,El-Mamoura,El-Mamoura,31.26992,30.024672,withdraw
Alexandria,El-Mamoura,Al Mamoura Psychiatric Hospital,31.26992,30.024672,cash dispenser only
Alexandria,El-Mamoura,Republic Presidency 4 ATMs in Maamoura Palace in Alexandria,31.28775,30.017467,cash dispenser only
Alexandria,El-Mamoura,Al Mamoura Psychiatric Hospital,31.26992,30.024672,cash dispenser only
Alexandria,El-Mamoura,Republic Presidency 4 ATMs in Maamoura Palace in Alexandria,31.28775,30.017467,cash dispenser only
Alexandria,El-Menshya,El-Menshya,31.197056,29.893067,full function
Alexandria,El-Menshya,El-Menshya,31.197566,29.887215,withdraw
Alexandria,El-Menshya,Almanshiea Management Medical Service,31.19950885,29.89210376,withdraw
Alexandria,El-Menshya,Aman Company Almanshiea,31.197566,29.887215,cash dispenser only
Alexandria,El-Seyouf,El-Seyouf,31.23424504,29.99290858,full function
Alexandria,El-Seyouf,El-Seyouf,31.223311,29.989522,withdraw
Alexandria,El-Seyouf,Raneen Al-karma,31.24582503,29.99034465,full function
Alexandria,El-Seyouf,Drinking water station - Al Awayed - Al Siouf - Alexandria,31.223311,29.989522,cash dispenser only
Alexandria,El-Seyouf,Drinking water station - Al Awayed - Al Siouf - Alexandria,31.223311,29.989522,cash dispenser only
Alexandria,Fleming,Fleming,31.237074,29.957522,withdraw
Alexandria,Fleming,Fleming,31.238145,29.961922,withdraw
Alexandria,Fleming,Fleming,31.23372,29.949506,withdraw
Alexandria,Fleming,Fleming,31.24007523,29.95591113,withdraw
Alexandria,Fleming,Dr. Amr Fawzy Pharmacy,31.23372,29.949506,cash dispenser only
Alexandria,Free Zone,Free Zone,31.200292,29.874015,withdraw
Alexandria,Free Zone,Free Zone,31.198353,29.882157,withdraw
Alexandria,Free Zone,Free Zone,31.170455,29.871485,withdraw
Alexandria,Free Zone,Free Zone,31.201067,29.880585,withdraw
Alexandria,Free Zone,Dekheila Customs - the first logistical area,31.198353,29.882157,cash dispenser only
Alexandria,Free Zone,Alexandria Shipyard Company - administrative building,31.170455,29.871485,cash dispenser only
Alexandria,Free Zone,Egyptian Shipbuilding Company,31.200292,29.874015,cash dispenser only
Alexandria,Free Zone,Dekheila Customs - the first logistical area,31.198353,29.882157,cash dispenser only
Alexandria,Glim,Glim,31.241816,29.9652,withdraw
Alexandria,Glim,Glim,31.239543,29.960454,full function
Alexandria,Glim,Mini Franchise Gleem,31.239543,29.960454,full function
Alexandria,Glim,Republic Presidency 1 ATM machine in the Revolution Palace in Alexandria,31.241816,29.9652,cash dispenser only
Alexandria,Glim,Republic Presidency 1 ATM machine in the Revolution Palace in Alexandria,31.241816,29.9652,cash dispenser only
Alexandria,Karmouz,Karmouz,31.203541,29.87492,withdraw
Alexandria,Karmouz,Gomla Market Co. -Ragheb Alexandria,31.18140822,29.90456065,withdraw
Alexandria,Karmouz,Ras Alteen Secondary School for girls,31.203541,29.87492,cash dispenser only
Alexandria,Karmouz,Nour Alhoda Center,31.181432,29.897295,withdraw
Alexandria,King Mariout,King Mariout,31.026001,29.776252,withdraw
Alexandria,King Mariout,King Mariout,31.016542,29.759929,withdraw
Alexandria,King Mariout,King Mariout,30.999926,29.733273,full function
Alexandria,King Mariout,Tulip Sports City Borg Alarab Hotel,30.999926,29.733273,full function
Alexandria,King Mariout,"The Higher Institute of Engineering and Technology, King Mariout",31.026001,29.776252,cash dispenser only
Alexandria,King Mariout,Alexandria Drinking Water Company Mariout Station 1,31.016542,29.759929,cash dispenser only
Alexandria,Loran,Loran,31.27883055,30.01111865,full function
Alexandria,Loran,Loran,31.243763,29.968977,withdraw
Alexandria,Loran,Loran,31.246028,29.966628,withdraw
Alexandria,Loran,Loran,31.245433,29.966715,full function
Alexandria,Loran,San Stefano Mall Alexandria attached to the Four Seasons Hotel,31.245433,29.966715,full function
Alexandria,Loran,Gomla Market Company - Ganaklis Alexandria,31.243763,29.968977,cash dispenser only
Alexandria,Loran,San Stefano Mall Alexandria attached to the Four Seasons Hotel,31.245433,29.966715,full function
Alexandria,Loran,Gomla Market Company - Ganaklis Alexandria,31.243763,29.968977,cash dispenser only
Alexandria,Loran,Four Seasons Office,31.246028,29.966628,cash dispenser only
Alexandria,Mahatet El Raml,Mahatet El Raml,31.196528,29.896419,withdraw
Alexandria,Mahatet El Raml,Mahatet El Raml,31.19573776,29.89956485,full function
Alexandria,Mahatet El Raml,Mahatet El Raml,31.196122,29.899129,withdraw
Alexandria,Mahatet El Raml,Attarin,31.1970895,29.89839497,full function
Alexandria,Mahatet El Raml,Talaat Harb Garage Branch Alexandria,31.196437,29.900379,cash dispenser only
Alexandria,Miami,Miami,31.265602,29.998212,withdraw
Alexandria,Miami,Miami,31.267477,29.989665,withdraw
Alexandria,Miami,Miami,31.27062994,29.99449947,full function
Alexandria,Miami,Miami,31.268295,29.995392,withdraw
Alexandria,Miami,Miami,31.268277,29.995406,withdraw
Alexandria,Miami,Tianbei Limited Company,31.268295,29.995392,full function
Alexandria,Miami,Consumer Complexes - Bir Masoud,31.267477,29.989665,cash dispenser only
Alexandria,Miami,Sedy Beshr Alteram,31.256579,29.991957,cash dispenser only
Alexandria,Miami,Naval Academy Abo Miami,31.265602,29.998212,full function
Alexandria,Miami,Miami Azhari Training Center 2,31.268277,29.995406,cash dispenser only
Alexandria,Mina Albasal,Mina Albasal,31.171299,29.8825,full function
Alexandria,Mina Albasal,Mina Albasal,31.16880033,29.88096196,withdraw
Alexandria,Mina Albasal,Mina Albasal,31.17831949,29.87554061,withdraw
Alexandria,Mina Albasal,Orange Amir Loulou St.,31.171299,29.8825,full function
Alexandria,Mina Albasal,Aman Al-Wardian,31.17057899,29.88035181,full function
Alexandria,Mina Albasal,Bashayer Al Khair Branch 2,31.16333635,29.88756811,withdraw and deposit
Alexandria,Mina Albasal,Bashayer Al Khair Branch 1,31.163368,29.88764336,withdraw and deposit
Alexandria,Moharam Bek,Moharam Bek,31.186159,29.902449,withdraw
Alexandria,Moharam Bek,Moharam Bek,31.229727,29.983247,withdraw
Alexandria,Moharam Bek,Moharam Bek,31.190185,29.928103,withdraw
Alexandria,Moharam Bek,Moharam Bek,31.195494,29.913398,withdraw
Alexandria,Moharam Bek,Moharam Bek,31.18571996,29.90261065,full function
Alexandria,Moharam Bek,Moharam Bek,31.19350132,29.91368355,full function
Alexandria,Moharam Bek,Moharam Bek,31.169119,29.93065,full function
Alexandria,Moharam Bek,Moharam Bek,31.170117,29.929812,withdraw
Alexandria,Moharam Bek,City Center Mall - Carrefour Alexandria,31.1691189,29.93064978,withdraw
Alexandria,Moharam Bek,Carrefour City Center Alexandria,31.16779581,29.93106319,full function
Alexandria,Moharam Bek,Mobil Gas Station Runway AirPort,31.18774457,29.93818796,full function
Alexandria,Moharam Bek,City Center Mall - Carrefour Alexandria 2,31.170117,29.929812,cash dispenser only
Alexandria,Moharam Bek,Gomla Market Company - Al Mansha - Alexandria,31.195494,29.913398,cash dispenser only
Alexandria,Moharam Bek,City Center Mall - Carrefour Alexandria 2,31.170117,29.929812,cash dispenser only
Alexandria,Moharam Bek,"Consumer complexes, Muharram Bey",31.186159,29.902449,cash dispenser only
Alexandria,Moharam Bek,Starch and yeast company Moharam Bek,31.190185,29.928103,cash dispenser only
Alexandria,Moharam Bek,Orange Aliskandarany,31.190614,29.904658,full function
Alexandria,Moharam Bek,"Consumer complexes, Muharram Bey",31.186159,29.902449,cash dispenser only
Alexandria,North Coast,North Coast,30.835694,28.960557,withdraw
Alexandria,North Coast,North Coast,30.974608,29.563207,withdraw
Alexandria,North Coast,North Coast,31.016217,29.634942,withdraw
Alexandria,North Coast,North Coast,31.017048,29.637791,withdraw
Alexandria,North Coast,Stella Walk,30.956641,28.769156,full function
Alexandria,North Coast,Diplomasien Vilage,30.930344,29.473796,withdraw
Alexandria,North Coast,Fathallah Nis Village,30.876663,29.356526,withdraw
Alexandria,North Coast,Fathallah K 40,30.978234,29.57327,withdraw
Alexandria,North Coast,Fathallah Rozana,30.909469,29.433593,withdraw
Alexandria,North Coast,Carrefour - Alorouba Mall,31.00635916,29.63809571,full function
Alexandria,North Coast,Amon North Coast,30.99453118,29.59897575,full function
Alexandria,North Coast,Alnesour Village Sedi Krir,31.016217,29.634942,cash dispenser only
Alexandria,North Coast,Alnesour Village Sedi Krir,31.016217,29.634942,cash dispenser only
Alexandria,North Coast,Sidy Krir Village - North Coast,31.017048,29.637791,cash dispenser only
Alexandria,North Coast,Al Shorouk village in the North Coast,30.974608,29.563207,cash dispenser only
Alexandria,North Coast,Mobile ATM 4,31.082603,28.028777,cash dispenser only
Alexandria,North Coast,Diplomats' Village,30.930344,29.473796,full function
Alexandria,Roshdy,Roshdy,31.22917466,29.95082242,withdraw
Alexandria,Roshdy,Roshdy,31.231924,29.946107,full function
Alexandria,Roshdy,Tulip Royal Hotel Alexandria,31.231924,29.946107,withdraw
Alexandria,Roshdy,Carrefour-Kafr Abdo,31.22493026,29.9491486,full function
Alexandria,Semouha,Semouha,31.21220563,29.9467783,full function
Alexandria,Semouha,Semouha,31.216834,29.94553,withdraw
Alexandria,Semouha,Semouha,31.21222571,29.94676772,withdraw
Alexandria,Semouha,Semouha,31.209609,29.948049,withdraw
Alexandria,Semouha,Semouha,31.214339,29.93917,withdraw
Alexandria,Semouha,Carrefour -Zaki Ragab,31.2079789,29.93533629,withdraw
Alexandria,Semouha,Misr Exchange Semoha,31.21579266,29.94569666,withdraw
Alexandria,Semouha,Carrefour Almoltaqa Mall,31.21912283,29.94448886,withdraw
Alexandria,Semouha,Carrefour -Green Plaza Mall,31.20547815,29.96658652,withdraw
Alexandria,Semouha,State Council Alexandria Branch 1,31.20832798,29.94845004,full function
Alexandria,Semouha,Spinneys Alexandria,31.21777724,29.95405601,full function
Alexandria,Semouha,Al-Nasr Sports Center - Smouha Branch,31.20777398,29.93505639,full function
Alexandria,Semouha,Circle K Moustafa Kamel 45,31.209609,29.948049,cash dispenser only
Alexandria,Semouha,We Green Plaza Smouha,31.20989396,29.96540157,full function
Alexandria,Semouha,On the run Smouha,31.21288367,29.94960012,full function
Alexandria,Semouha,Biet Alneaama Hospital,31.214339,29.93917,cash dispenser only
Alexandria,Semouha,Select Alexandria,31.216834,29.94553,cash dispenser only
Alexandria,Semouha,Biet Alneaama Hospital,31.214339,29.93917,cash dispenser only
Alexandria,Semouha,Select Alexandria,31.216834,29.94553,cash dispenser only
Alexandria,Semouha,Alexandria Manpower Directorate,31.215786,29.939907,cash dispenser only
Alexandria,Shatby,Shatby,31.207087,29.910795,withdraw
Alexandria,Shatby,Shatby,31.20861,29.913133,withdraw
Alexandria,Shatby,University administration in Shatby,31.207087,29.910795,cash dispenser only
Alexandria,Shatby,El Shatby Elementary School,31.20861,29.913133,cash dispenser only
Alexandria,Sidi Beshr,Sidi Beshr,31.262575,29.992491,withdraw
Alexandria,Sidi Beshr,Sidi Beshr,31.2478742,29.98064341,withdraw
Alexandria,Sidi Beshr,Sidi Beshr,31.262186,29.991982,withdraw
Alexandria,Sidi Beshr,Alagzakhana Pharmacy - D . Abd Alaziz Ied -Sedy Beshr,31.256472,29.978475,full function
Alexandria,Sidi Beshr,Sharq Amadina Hospital,31.262575,29.992491,cash dispenser only
Alexandria,Sidi Beshr,Shrq Almadina Hospital In Alexandria,31.262186,29.991982,withdraw
Alexandria,Sidi Gaber,Fathallah  the towers of Sidi Gaber,31.21919759,29.94266286,withdraw
Alexandria,Sidi Gaber,Sidi Gaber,31.247658,29.968053,withdraw
Alexandria,Sidi Gaber,Sidi Gaber,31.21889042,29.94194917,full function
Alexandria,Sidi Gaber,Sidi Gaber,31.229429,29.942002,full function
Alexandria,Sidi Gaber,Sidi Gaber,31.224547,29.942063,withdraw
Alexandria,Sidi Gaber,Sidi Gaber,31.225153,29.941699,withdraw
Alexandria,Sidi Gaber,Sidi Gaber,31.221283,29.942607,withdraw
Alexandria,Sidi Gaber,Sidi Gaber,31.23174,29.944669,withdraw
Alexandria,Sidi Gaber,Fathalla - Alnasr,31.21403199,29.96862597,withdraw
Alexandria,Sidi Gaber,Gomla Market Alibrahemia,31.2134636,29.9286509,full function
Alexandria,Sidi Gaber,Aman Sedy Gaber,31.223521,29.93848354,full function
Alexandria,Sidi Gaber,Alexandria train station,31.21900006,29.94234857,full function
Alexandria,Sidi Gaber,Express Almatar,31.205287,29.966553,full function
Alexandria,Sidi Gaber,Golden Jewel Hotel Alexandria,31.229429,29.942002,full function
Alexandria,Sidi Gaber,  26 ,31.247658,29.968053,cash dispenser only
Alexandria,Sidi Gaber,Sun Mall July 6,31.247658,29.968053,cash dispenser only
Alexandria,Sidi Gaber,Sales Tax Authority - Alexandria region,31.221283,29.942607,cash dispenser only
Alexandria,Sidi Gaber,Northern Military District Command,31.224547,29.942063,cash dispenser only
Alexandria,Sidi Gaber,Armed Forces Hospital in Alexandria,31.225153,29.941699,cash dispenser only
Alexandria,Sidi Gaber,Bisco Misr Alexandria Company,31.197593,29.945226,cash dispenser only
Alexandria,Sizostrees,Sizostrees,31.19715255,29.89827627,withdraw
Alexandria,Sporting,Sporting,31.220355,29.931113,withdraw
Alexandria,Sporting,Sporting,31.217849,29.928639,withdraw
Alexandria,Sporting,Gomla Market Company - Sporting Alexandria,31.217849,29.928639,cash dispenser only
Alexandria,Sporting,Gomla Market Company - Sporting Alexandria,31.217849,29.928639,cash dispenser only
Alexandria,Sporting,Khir Zaman Sporting,31.220355,29.931113,cash dispenser only
Alexandria,Victoria,Victoria,31.24996,29.975313,full function
Alexandria,Victoria,Super Franchise Aliqbal St.,31.24996,29.975313,full function
Alexandria,Victoria,Super Franchise Aliqbal St.,31.24996,29.975313,full function
Alexandria,Wenget,Wenget,31.22987515,29.95448387,withdraw
Alexandria,Wenget,Wenget,31.229026,29.957179,withdraw
Alexandria,Wenget,Carrefour - Wenget,31.22942831,29.95654298,withdraw
Alexandria,Wenget,Aman Company Wenget - Alexandria,31.229026,29.957179,cash dispenser only
Assiut,Abanob,Abanob,27.2658259,31.15793879,withdraw
Assiut,Abanob,Abnoub Central,27.264931,31.148626,withdraw and deposit
Assiut,Abou Tig,Abou Tig,27.05310126,31.31595355,full function
Assiut,Al Quseyya,Al Quseyya,27.43953532,30.8273281,full function
Assiut,Al Quseyya,Al Quseyya,27.43814448,30.81668944,withdraw
Assiut,Al Quseyya,Al Quseyya,27.43781146,30.8276608,withdraw
Assiut,Al Quseyya,Al Quseyya,27.439218,30.81883979,withdraw
Assiut,Al Quseyya,Al Quseyya,27.43968148,30.82232463,withdraw
Assiut,Al Quseyya,Al Quseyya,27.43977534,30.82230266,withdraw
Assiut,Al Quseyya,Al Quseyya,27.44144447,30.82020479,withdraw
Assiut,Al Quseyya,Misr Exchange Alqousia,27.43968721,30.82506395,withdraw
Assiut,Assiut,Assiut,27.18400093,31.19580872,withdraw
Assiut,Assiut,Assiut,27.19548827,31.17679231,withdraw
Assiut,Assiut,Assiut,27.17918631,31.18205959,withdraw
Assiut,Assiut,Assiut,27.18712744,31.18924921,withdraw
Assiut,Assiut,Assiut,27.18526101,31.17127526,withdraw
Assiut,Assiut,Assiut,27.1838221,31.16886305,withdraw
Assiut,Assiut,Assiut,27.18374922,31.16880784,withdraw
Assiut,Assiut,Assiut,27.19207954,31.18616168,withdraw
Assiut,Assiut,Assiut,27.18929654,31.17595141,withdraw
Assiut,Assiut,Assiut,27.17827722,31.18616118,withdraw
Assiut,Assiut,Assiut,27.18690223,31.17979978,full function
Assiut,Assiut,Assiut,27.1874485,31.17418336,withdraw
Assiut,Assiut,Assiut,27.18867369,31.16647667,withdraw
Assiut,Assiut,Assiut,27.18433966,31.16835757,full function
Assiut,Assiut,Assiut,27.19791636,31.17385039,withdraw
Assiut,Assiut,Assiut,27.1844315,31.19525518,withdraw
Assiut,Assiut,Assiut,27.18057437,31.18771727,withdraw
Assiut,Assiut,Assiut,27.19731125,31.18581102,withdraw
Assiut,Assiut,Assiut,27.19792152,31.1843331,withdraw
Assiut,Assiut,Assiut,27.18254169,31.19656675,withdraw
Assiut,Assiut,Assiut,27.19145236,31.18973844,withdraw
Assiut,Assiut,Assiut,27.19137565,31.18974081,withdraw
Assiut,Assiut,Assiut,27.18102219,31.18746216,withdraw
Assiut,Assiut,Assiut,27.19433507,31.18660671,withdraw
Assiut,Assiut,Assiut,27.18387924,31.19590184,withdraw
Assiut,Assiut,Assiut,27.1932679,31.1795801,withdraw
Assiut,Assiut,Assiut,27.18393283,31.19586083,withdraw
Assiut,Assiut,Assiut,27.16777802,31.17785892,withdraw
Assiut,Assiut,Assiut,27.18556716,31.16394336,withdraw
Assiut,Assiut,Assiut,27.1851536,31.16692162,withdraw
Assiut,Assiut,Assiut,27.18439856,31.16725441,withdraw
Assiut,Assiut,Assiut,27.18152804,31.19080767,withdraw
Assiut,Assiut,Assiut,27.19633785,31.18515719,withdraw
Assiut,Assiut,Assiut,27.18330279,31.18583587,withdraw
Assiut,Assiut,Assiut,27.19890094,31.18521968,withdraw
Assiut,Assiut,Assiut,27.18007947,31.02266292,withdraw
Assiut,Assiut,Southern Military District - Assiut - The Gate,27.190201,31.186202,cash dispenser only
Assiut,Assiut,Southern Military District - Assiut - Swimming pool,27.190857,31.186045,cash dispenser only
Assiut,Assiut,Southern Military District Assiut ,27.189487,31.185845,cash dispenser only
Assiut,Assiut,Assiut Central Central,27.182268,31.18696,withdraw and deposit
Assiut,Assiut,Assiut for Islamic transactions 3,27.186976,31.179728,full function
Assiut,Assiut Algadida,Assiut Algadida,27.27181631,31.29082245,full function
Assiut,Dairut,Dairout Branch 6,27.55740089,30.81600975,full function
Assiut,Dairut,Dairut,27.55374407,30.80804464,withdraw
Assiut,Dairut,Dairut,27.55740742,30.81607571,withdraw
Assiut,Dairut,Tamwely Dairout,27.55135979,30.81289065,withdraw
Assiut,Dairut,Tanmiah Fazara,27.47393499,30.82512873,full function
Assiut,Dairut,Dayrut Islamic Transactions Branch,27.54771,30.811633,full function
Assiut,Dairut,Dayrut branch for Islamic transactions,27.54758627,30.81167131,withdraw
Assiut,El Fath,El Fath,27.20533824,31.19337134,withdraw
Assiut,Manfalut,Manfalut,27.30834417,30.96605765,withdraw
Assiut,Manfalut,Manfalut,27.20343975,30.99665661,full function
Assiut,Manfalut,Tamwely Manfalout,27.30827966,30.96938791,withdraw
Assiut,Manfalut,Tanmiah manfalout,27.30914,30.968783,full function
Assiut,Manfalut,Manfalut Branch for Islamic Transactions,27.308347,30.966059,full function
Assiut,Sahel Selim,Sahel Selim,27.05837569,31.34049041,withdraw
Assiut,Sahel Selim,Tamwely Sahel Selim,27.06000313,31.34195195,withdraw
Assiut,Sahel Selim,Orange Sahel Selim,27.05904905,31.34111472,withdraw
Assiut,Sedfa,Sedfa,26.96732163,31.38412036,full function
Assiut,Sedfa,Sedfa,26.96364768,31.37728354,withdraw
Assiut,Sedfa,Tamwely Sedfa,26.96651067,31.38487023,withdraw
Aswan,Abu Simbel,Abu Simbel,22.34042972,31.61450623,full function
Aswan,Abu Simbel,Abu Simbel,22.34850694,31.61642314,withdraw
Aswan,Abu Simbel,Abu Simbel,22.3376639,31.62333461,full function
Aswan,Abu Simbel,Abo Simbel Elementary School,22.34850694,31.61642314,withdraw
Aswan,Abu Simbel,Abu Simbel Temple - Aswan,22.3376639,31.62333461,withdraw
Aswan,Aswan,Aswan,24.09722379,32.89825163,withdraw
Aswan,Aswan,Aswan,24.09437334,32.8979862,withdraw
Aswan,Aswan,Aswan,24.09478724,32.90520557,withdraw
Aswan,Aswan,Aswan,24.0920201,32.89577538,withdraw
Aswan,Aswan,Aswan,24.09315737,32.90377831,withdraw
Aswan,Aswan,Aswan,24.09278849,32.89647103,full function
Aswan,Aswan,Aswan,24.05730478,32.88279592,full function
Aswan,Aswan,Aswan,24.09882342,32.90176274,withdraw
Aswan,Aswan,Aswan,24.09992416,32.90237821,withdraw
Aswan,Aswan,Aswan,24.0958139,32.89992016,full function
Aswan,Aswan,Aswan,24.07307803,32.88818552,withdraw
Aswan,Aswan,Aswan,24.10713071,32.90053302,withdraw
Aswan,Aswan,Aswan,24.08735444,32.89317654,withdraw
Aswan,Aswan,Aswan,23.97084113,32.87758559,withdraw
Aswan,Aswan,Aswan,24.0863166,32.90802333,withdraw
Aswan,Aswan,Aswan,24.09951335,32.90210935,withdraw
Aswan,Aswan,Aswan,24.09312883,32.90339857,withdraw
Aswan,Aswan,Aswan,24.09921611,32.89901099,withdraw
Aswan,Aswan,Aswan,24.08512185,32.89151333,full function
Aswan,Aswan,Aswan,24.08120891,32.89200278,withdraw
Aswan,Aswan,Aswan,24.0628031,32.884378,full function
Aswan,Aswan,Aswan,24.08436708,32.89110549,withdraw
Aswan,Aswan,State Council Aswan Branch,24.10006523,32.9004554,full function
Aswan,Aswan,Tanmiah Aswan,24.08753622,32.89647019,full function
Aswan,Aswan,Orange Aswan,24.11695677,32.90096842,deposit
Aswan,Aswan,"The police compound, the first section of Aswan",24.09437334,32.8979862,withdraw
Aswan,Aswan,Alshahid Essam Salama Mosque,24.09312883,32.90339857,withdraw
Aswan,Aswan,Administration of endowments st Aswan Area,24.09315737,32.90377831,withdraw
Aswan,Aswan,Malek Farouk Mosque Aswan,24.09921611,32.89901099,withdraw
Aswan,Aswan,Egypt Exchange Aswan,24.08512185,32.89151333,withdraw
Aswan,Aswan,School of advanced commerce Aswan,24.07307803,32.88818552,withdraw
Aswan,Aswan,Aswan and Nuba archeology area,24.08120891,32.89200278,withdraw
Aswan,Aswan,Aswan Health Insurance Authority,24.0628031,32.884378,withdraw
Aswan,Aswan,Aswan Azhar Area,24.09478724,32.90520557,withdraw
Aswan,Aswan,Aswan General Teaching Hospital,24.0863166,32.90802333,withdraw
Aswan,Aswan,Aswan Educational Administration,24.0920201,32.89577538,withdraw
Aswan,Aswan,Directorate of Organization and Administration in Aswan,24.10713071,32.90053302,withdraw
Aswan,Aswan,Mohammed Hosni Mubarak School - Aswan,24.0958139,32.89992016,withdraw
Aswan,Aswan,Ministry of Water Resources Aswan,24.08436708,32.89110549,withdraw
Aswan,Aswan,High Dam Public Authority Hospital,23.97084113,32.87758559,withdraw
Aswan,Aswan, Aswan Airport Office,23.963547,32.824228,withdraw
Aswan,Aswan,Tulip Aswan,24.109023,32.901236,full function
Aswan,Aswan Algadida,Aswan Algadida,24.18187472,32.85059728,full function
Aswan,Draow,Draow,24.41004134,32.92668034,withdraw
Aswan,Draow,Draow,24.40520544,32.92731861,withdraw
Aswan,Draow,Tamwely Daraw,24.40661403,32.92675734,withdraw
Aswan,Draow,Tanmiah Almansouria ,24.44736427,32.91654938,full function
Aswan,Draow,Tanmiah Daraw,24.41175383,32.92724376,full function
Aswan,Draow,Almahatta Daru Mosque Aswan,24.40520544,32.92731861,withdraw
Aswan,Draow,Inspection of the ruins of Kom Ombo,24.466917,32.869146,full function
Aswan,Edfu,Edfu,24.97940531,32.87998284,withdraw
Aswan,Edfu,Edfu,24.97777226,32.87575629,full function
Aswan,Edfu,Edfu,24.97935378,32.87738895,withdraw
Aswan,Edfu,Edfu,25.08647492,32.84207206,withdraw
Aswan,Edfu,Edfu,25.04230981,32.85863589,withdraw
Aswan,Edfu,Edfu,24.97784907,32.88165831,withdraw
Aswan,Edfu,Edfu,25.01642173,32.87111689,withdraw
Aswan,Edfu,Edfu,25.0628877,32.83404837,withdraw
Aswan,Edfu,Edfu,25.06952169,32.86271916,withdraw
Aswan,Edfu,Etsalat idfo,24.97982633,32.88074186,withdraw
Aswan,Edfu,Tamwely Idfo,24.99283213,32.90676507,withdraw
Aswan,Edfu,Edfu sugar,25.04230981,32.85863589,withdraw
Aswan,Edfu,Edfu train station,24.99041775,32.88932005,withdraw
Aswan,Edfu,Tanmiah Alfouza,24.93281738,32.9027742,full function
Aswan,Edfu,Tanmiah Idfo,24.9797644,32.87993227,full function
Aswan,Edfu,Tanmiah Alnakhl,24.92676127,32.8580406,full function
Aswan,Edfu,Edfu Religious Institute,24.97935378,32.87738895,withdraw
Aswan,Edfu,Taha Abu Kulaib Institute,25.06952169,32.86271916,withdraw
Aswan,Edfu,The police compound in Edfu police station,24.97940531,32.87998284,withdraw
Aswan,Edfu,Karnak Azhari Institute,25.0628877,32.83404837,withdraw
Aswan,Edfu,The local unity east of Sheikh Ali( Advo) ,25.08647492,32.84207206,withdraw
Aswan,Edfu,Imam Mosque on Edfu,25.01642173,32.87111689,withdraw
Aswan,Edfu,Alradesiah local unit,24.911662,32.882407,full function
Aswan,Kom Ombo,Kom Ombo,24.47707939,32.94871867,withdraw
Aswan,Kom Ombo,Kom Ombo,24.4757042,32.94345433,withdraw
Aswan,Kom Ombo,Kom Ombo,24.47928889,32.94309971,withdraw
Aswan,Kom Ombo,Kom Ombo,24.73880782,32.94043787,withdraw
Aswan,Kom Ombo,Kom Ombo,24.47887908,32.94377731,withdraw
Aswan,Kom Ombo,Kom Ombo,24.47661505,32.94787025,withdraw
Aswan,Kom Ombo,Kom Ombo,24.47671591,32.94884801,withdraw
Aswan,Kom Ombo,Etsalat Aswan Kom Ombo,24.47548378,32.94790418,withdraw
Aswan,Kom Ombo,Tamwely koum Ombo,24.47601931,32.95048935,withdraw
Aswan,Kom Ombo,Orange Koum Ombo,24.47654743,32.94425516,withdraw
Aswan,Kom Ombo,Ahmed Laithi School in Kom Ombo,24.73880782,32.94043787,withdraw
Aswan,Kom Ombo,Kom Ombo Agricultural administration,24.4757042,32.94345433,withdraw
Aswan,Kom Ombo,Alshahid Fathy Amin School Kom Ombo,24.47887908,32.94377731,withdraw
Aswan,Kom Ombo,Egypt Exchange Com Amio,24.47661505,32.94787025,withdraw
Aswan,Kom Ombo,Kom Ombo Train Station,24.4780657,32.94722857,withdraw and deposit
Aswan,Kom Ombo,Educational Administration Kom Ombo,24.47525,32.942907,full function
Aswan,Nasr El Noba,Nasr El Noba,24.54051595,33.03392406,withdraw
Aswan,Nasr El Noba,Nasr El Noba,24.62356122,32.94917422,withdraw
Aswan,Nasr El Noba,Nasr El Noba,24.63108694,32.9488603,withdraw
Aswan,Nasr El Noba,Nasr El Noba,24.5455454,33.03926312,withdraw
Aswan,Nasr El Noba,Nasr El Noba,24.54155444,33.03492729,withdraw
Aswan,Nasr El Noba,Tanmiah Alnouba,24.54158392,33.035257,full function
Aswan,Nasr El Noba,Nasr Alnouba Educational Administration,24.54051595,33.03392406,withdraw
Aswan,Nasr El Noba,Nasar Alnoua City Council,24.5455454,33.03926312,withdraw
Aswan,Nasr El Noba,Kalabsha Culture Palace,24.63108694,32.9488603,withdraw
Aswan,Nasr El Noba,Branches Nasr Alnouba 2,24.541593,33.034906,full function
Beni Suef,Ahnasia,Ahnasia,29.09317909,30.95394899,withdraw
Beni Suef,Ahnasia,Tanmiah Ahnasia City (Barawa),29.0244,30.905135,full function
Beni Suef,Al Fashn,Al Fashn,28.82091689,30.90268724,withdraw
Beni Suef,Al Fashn,Al Fashn,28.750258,30.874028,withdraw
Beni Suef,Al Fashn,Al Fashn,28.781578,30.822385,withdraw
Beni Suef,Al Fashn,Al Fashn,28.826764,30.90228,withdraw
Beni Suef,Al Fashn,Al Fashn,28.86787,30.837359,withdraw
Beni Suef,Al Fashn,Al Fashn,28.82095926,30.90270962,withdraw
